City_ID,City,Lat,Lng,Max Temp,Humidity,Cloudiness,Wind Speed,Country,Date
0,bluff,-46.6,168.3333,64.17,85,98,9.84,NZ,1675530608
1,torbay,47.6666,-52.7314,12.58,71,75,34.52,CA,1675530599
2,saint-philippe,-21.3585,55.7679,80.19,88,67,12.06,RE,1675530645
3,tasiilaq,65.6145,-37.6368,24.96,95,97,8.72,GL,1675530836
4,cape town,-33.9258,18.4232,77.88,68,4,5.99,ZA,1675530748
5,hermanus,-34.4187,19.2345,80.8,82,39,5.28,ZA,1675530957
6,barrow,71.2906,-156.7887,-21.98,76,40,9.22,US,1675530939
7,qasigiannguit,68.8193,-51.1922,-0.15,97,100,3.98,GL,1675530937
8,hirara,24.8,125.2833,68.68,71,89,15.57,JP,1675530762
9,bredasdorp,-34.5322,20.0403,75.42,71,1,7.83,ZA,1675530959
10,fortuna,40.5982,-124.1573,52.93,71,0,14.97,US,1675530776
11,hobart,-42.8794,147.3294,57.25,73,100,12.66,AU,1675530600
12,ushuaia,-54.8,-68.3,53.22,51,99,5.39,AR,1675530598
13,butaritari,3.0707,172.7902,81.39,81,75,19.98,KI,1675530641
14,castro,-24.7911,-50.0119,74.21,71,99,10.18,BR,1675530643
15,labuhan,-6.8844,112.2051,78.08,84,100,6.71,ID,1675530961
16,nanortalik,60.1432,-45.2371,32.07,70,100,36.84,GL,1675530300
17,mancio lima,-7.6142,-72.8958,86.07,79,75,0.0,BR,1675530964
18,savannah bight,16.45,-85.85,77.61,72,69,4.88,HN,1675530732
19,busselton,-33.65,115.3333,75.9,44,92,8.59,AU,1675530616
20,narsaq,60.9167,-46.05,28.62,60,100,13.22,GL,1675530765
21,bowen,-20.0167,148.2333,80.33,86,93,11.16,AU,1675530971
22,kurchum,48.5722,83.6542,22.35,97,100,2.3,KZ,1675530972
23,black forest,39.0131,-104.7008,49.14,21,0,9.22,US,1675530975
24,rikitea,-23.1203,-134.9692,78.04,78,4,18.48,PF,1675530593
25,nikolskoye,59.7035,30.7861,28.29,94,100,9.19,RU,1675530671
26,russell,32.3502,-85.1999,52.2,35,0,6.91,US,1675530872
27,changji,44.0167,87.3167,20.19,79,100,2.24,CN,1675530981
28,navrongo,10.8956,-1.0921,98.65,10,9,8.03,GH,1675530983
29,seguin,29.5688,-97.9647,56.8,82,0,5.75,US,1675530950
30,turukhansk,65.8167,87.9833,5.31,97,100,4.16,RU,1675530985
31,victoria,22.2855,114.1577,65.25,86,100,8.99,HK,1675530460
32,paredon,16.0333,-93.8667,80.11,52,9,24.7,MX,1675530989
33,ceres,37.5949,-120.9577,47.05,98,100,4.61,US,1675530704
34,lompoc,34.6391,-120.4579,57.58,80,0,6.91,US,1675530763
35,meulaboh,4.1363,96.1285,74.77,83,100,3.4,ID,1675530697
36,aljezur,37.3191,-8.8033,60.4,56,0,6.89,PT,1675530994
37,victoria point,-27.5833,153.3,73.94,90,92,8.57,AU,1675530994
38,rio grande,-32.035,-52.0986,86.11,54,14,18.3,BR,1675530690
39,rognan,67.0953,15.3878,34.05,75,100,8.05,NO,1675530995
40,mahebourg,-20.4081,57.7,80.26,78,76,11.7,MU,1675530705
41,saurimo,-9.6608,20.3916,63.72,99,100,5.5,AO,1675530996
42,new norfolk,-42.7826,147.0587,56.91,64,93,1.99,AU,1675530658
43,zlobin,45.2924,14.6541,39.79,40,0,27.63,HR,1675530997
44,longido,-2.7333,36.6833,77.45,27,75,16.89,TZ,1675530997
45,mattru,7.6244,-11.8332,95.18,34,11,6.85,SL,1675530998
46,east london,-33.0153,27.9116,77.14,79,40,19.93,ZA,1675530712
47,dikson,73.5069,80.5464,0.68,96,100,2.24,RU,1675530650
48,manono,-7.3,27.4167,70.03,95,92,6.76,CD,1675530999
49,komsomolskiy,40.4272,71.7189,41.72,81,87,4.61,UZ,1675530670
50,saldanha,-33.0117,17.9442,66.96,95,43,16.4,ZA,1675530758
51,borogontsy,62.6683,131.1683,-36.17,100,95,3.02,RU,1675531000
52,ahipara,-35.1667,173.1667,66.16,93,95,7.0,NZ,1675530847
53,launceston,-41.45,147.1667,53.24,75,48,4.61,AU,1675531001
54,griffith,41.5284,-87.4237,34.27,61,0,20.71,US,1675531001
55,khatanga,71.9667,102.5,-37.16,100,61,4.9,RU,1675530649
56,lebu,-37.6167,-73.65,67.3,75,31,13.53,CL,1675530666
57,ribeira grande,38.5167,-28.7,64.8,82,75,10.36,PT,1675530594
58,chuy,-33.6971,-53.4616,75.72,58,55,15.5,UY,1675530837
59,albany,42.6001,-73.9662,7.57,42,36,1.01,US,1675530609
60,gobabis,-22.45,18.9667,79.83,47,100,11.34,NA,1675531004
61,nara,34.6851,135.8049,39.49,47,26,1.7,JP,1675530775
62,kodiak,57.79,-152.4072,18.91,93,0,6.91,US,1675530648
63,necochea,-38.5473,-58.7368,74.1,43,0,10.22,AR,1675531005
64,yanam,16.7333,82.2167,69.91,80,0,3.31,IN,1675531005
65,airai,-8.9266,125.4092,60.51,93,100,1.77,TL,1675530594
66,vestmannaeyjar,63.4427,-20.2734,36.59,75,75,34.52,IS,1675530755
67,broken hill,-31.95,141.4333,63.77,49,0,11.03,AU,1675530827
68,saint george,37.1041,-113.5841,48.43,47,0,0.0,US,1675530796
69,chebsara,59.2002,38.8356,27.73,98,100,3.98,RU,1675531008
70,xam nua,20.4197,104.0439,60.1,99,77,2.24,LA,1675531009
71,kavieng,-2.5744,150.7967,80.76,78,97,7.45,PG,1675530851
72,doha,25.2867,51.5333,66.18,52,0,8.05,QA,1675530774
73,whitefish,48.4111,-114.3376,39.51,76,75,9.22,US,1675531011
74,tual,-5.6667,132.75,81.27,81,100,16.24,ID,1675531011
75,qandala,11.472,49.8728,73.76,71,7,6.22,SO,1675531012
76,punta arenas,-53.15,-70.9167,50.11,87,100,9.22,CL,1675530621
77,formosa,-26.1775,-58.1781,91.38,35,75,11.5,AR,1675530981
78,sinnamary,5.3833,-52.95,78.69,87,61,13.71,GF,1675530774
79,shingu,33.7333,135.9833,38.1,78,11,6.73,JP,1675531013
80,ejby,55.4858,12.0817,30.36,55,74,3.44,DK,1675531014
81,mar del plata,-38.0023,-57.5575,76.82,63,0,13.0,AR,1675530475
82,esperance,-33.8667,121.9,65.34,69,0,17.47,AU,1675530645
83,hithadhoo,-0.6,73.0833,81.84,73,65,16.84,MV,1675530596
84,jamestown,42.097,-79.2353,18.99,37,97,8.99,US,1675530384
85,nuuk,64.1835,-51.7216,11.01,72,20,23.02,GL,1675531016
86,vaini,-21.2,-175.2,80.15,77,36,9.33,TO,1675530638
87,rock sound,24.9,-76.2,74.91,75,7,14.52,BS,1675531017
88,kapaa,22.0752,-159.319,71.92,95,100,5.75,US,1675530549
89,yellowknife,62.456,-114.3525,-19.68,69,75,6.91,CA,1675530399
90,isangel,-19.55,169.2667,80.71,88,99,9.66,VU,1675530655
91,hervey bay,-25.2986,152.8535,78.3,85,74,5.01,AU,1675531018
92,bambous virieux,-20.3428,57.7575,80.22,78,87,11.23,MU,1675530659
93,nerchinskiy zavod,51.3088,119.61,-26.88,100,71,1.7,RU,1675531019
94,barcelos,41.5388,-8.6151,63.91,65,0,4.0,PT,1675531020
95,stykkisholmur,65.0757,-22.7297,32.63,67,80,23.13,IS,1675531020
96,dingle,10.9995,122.6711,74.44,94,100,8.14,PH,1675530600
97,atuona,-9.8,-139.0333,78.53,74,0,20.13,PF,1675530603
98,buluang,13.3068,123.3425,72.64,94,74,3.6,PH,1675531022
99,souillac,-20.5167,57.5167,78.76,80,57,11.5,MU,1675530592
100,barisal,22.7019,90.3711,66.09,41,95,4.85,BD,1675531025
101,sola,-13.8833,167.55,81.86,74,98,6.38,VU,1675530687
102,dehui,44.5333,125.7,12.31,79,44,10.83,CN,1675531028
103,sabzevar,36.2126,57.6819,40.69,41,39,4.81,IR,1675531029
104,ipixuna,-1.7625,-48.8043,80.76,89,93,4.47,BR,1675530766
105,caravelas,-17.7125,-39.2481,87.78,57,3,13.09,BR,1675531031
106,keningau,5.3378,116.1602,70.74,98,94,2.37,MY,1675530761
107,la ronge,55.1001,-105.2842,7.05,78,100,0.0,CA,1675531035
108,avarua,-21.2078,-159.775,78.85,89,20,13.8,CK,1675530644
109,hacari,8.3233,-73.1489,79.65,44,62,5.37,CO,1675531037
110,sokolo,14.7328,-6.1219,87.55,9,76,8.72,ML,1675531041
111,daliang,22.8504,113.247,67.05,80,100,5.99,CN,1675531042
112,price,39.5994,-110.8107,27.66,63,0,0.0,US,1675530776
113,bengkulu,-3.8004,102.2655,75.2,90,82,4.85,ID,1675530651
114,malanje,-9.5402,16.341,66.61,92,47,7.29,AO,1675531045
115,codrington,-38.2667,141.9667,58.46,78,99,8.46,AU,1675530704
116,aranos,-24.1333,19.1167,86.25,32,97,3.53,NA,1675531050
117,fremont,37.5483,-121.9886,55.38,92,100,1.01,US,1675531052
118,hilo,19.7297,-155.09,72.28,90,75,4.61,US,1675530654
119,najran,17.4924,44.1277,69.93,34,16,4.54,SA,1675530766
120,kahului,20.8947,-156.47,74.84,77,40,19.57,US,1675530611
121,tiksi,71.6872,128.8694,-14.78,99,100,4.0,RU,1675530657
122,constitucion,-35.3333,-72.4167,69.12,72,52,10.02,CL,1675530849
123,harur,12.0667,78.5,70.45,70,1,5.23,IN,1675531054
124,puerto ayora,-0.7393,-90.3518,85.96,86,24,5.99,EC,1675530595
125,coihaique,-45.5752,-72.0662,84.15,30,0,6.91,CL,1675530884
126,lianzhou,24.7811,112.3825,51.1,87,100,2.95,CN,1675531056
127,nabire,-3.3667,135.4833,74.89,96,100,0.83,ID,1675531056
128,port lincoln,-34.7333,135.8667,59.04,79,2,4.72,AU,1675530641
129,kruisfontein,-34.0033,24.7314,72.12,74,60,7.4,ZA,1675531058
130,san quintin,30.4833,-115.95,60.96,57,0,3.49,MX,1675530612
131,bilma,18.6853,12.9164,79.92,12,79,5.95,NE,1675530818
132,guerrero negro,27.9769,-114.0611,63.34,56,0,6.04,MX,1675530821
133,poya,-21.35,165.15,78.12,89,73,4.61,NC,1675531060
134,lorengau,-2.0226,147.2712,80.51,72,100,2.37,PG,1675530691
135,lai,9.3952,16.2989,91.47,12,64,5.23,TD,1675531060
136,port alfred,-33.5906,26.891,76.17,85,20,8.01,ZA,1675530638
137,katherine,-14.4667,132.2667,73.72,94,29,3.44,AU,1675530878
138,balakovo,52.0278,47.8007,11.44,98,85,5.35,RU,1675531062
139,aripuana,-9.1667,-60.6333,84.13,76,93,0.96,BR,1675531062
140,faanui,-16.4833,-151.75,81.18,73,98,15.1,PF,1675530651
141,kalangala,-0.3089,32.225,74.55,68,71,4.72,UG,1675531063
142,tila,17.4,-92.4833,63.36,100,100,2.3,MX,1675531064
143,thompson,55.7435,-97.8558,-7.49,95,92,3.06,CA,1675530562
144,thiruvananthapuram,8.4833,76.9167,82.38,78,40,2.3,IN,1675531064
145,hambantota,6.1241,81.1185,76.95,86,26,13.04,LK,1675531065
146,coahuayana,18.7333,-103.6833,87.96,26,0,3.42,MX,1675531065
147,mataura,-46.1927,168.8643,68.04,79,98,3.74,NZ,1675530641
148,acajutla,13.5928,-89.8275,87.21,46,6,8.88,SV,1675531067
149,tessalit,20.1986,1.0114,73.24,9,17,13.94,ML,1675531068
150,acapulco,16.8634,-99.8901,89.42,29,0,0.0,MX,1675530658
151,praia da vitoria,38.7333,-27.0667,63.75,88,75,12.5,PT,1675531069
152,upernavik,72.7868,-56.1549,-7.06,97,100,10.2,GL,1675530601
153,clyde river,70.4692,-68.5914,-14.93,89,100,3.71,CA,1675530682
154,georgetown,5.4112,100.3354,76.95,94,20,0.0,MY,1675530429
155,krasnoarmeysk,51.0239,45.6969,19.51,96,100,6.24,RU,1675531070
156,broome,42.2506,-75.833,10.45,65,91,4.0,US,1675530682
157,ostrovnoy,68.0531,39.5131,14.7,88,99,8.59,RU,1675530706
158,beloha,-25.1667,45.05,74.62,81,86,16.49,MG,1675531072
159,maarianhamina,60.0973,19.9348,19.26,93,0,1.14,AX,1675531072
160,roura,4.7263,-52.3274,76.91,100,100,2.3,GF,1675531073
161,luhyny,51.082,28.4006,23.02,85,100,8.81,UA,1675531073
162,hamilton,39.1834,-84.5333,37.38,45,0,14.97,US,1675530446
163,port-gentil,-0.7193,8.7815,80.56,94,40,9.22,GA,1675530883
164,whitehorse,60.7161,-135.0538,-0.98,100,86,3.02,CA,1675530782
165,san cristobal,7.7669,-72.225,77.18,40,80,7.34,VE,1675530644
166,salalah,17.0151,54.0924,75.29,73,75,3.44,OM,1675530694
167,mount gambier,-37.8333,140.7667,55.4,85,63,3.65,AU,1675530558
168,shu,43.5983,73.7614,32.61,99,100,5.03,KZ,1675531076
169,pochutla,15.7432,-96.4661,85.82,37,1,6.24,MX,1675531076
170,provideniya,64.3833,-173.3,-5.71,88,90,11.16,RU,1675530658
171,yar-sale,66.8333,70.8333,9.59,94,100,5.44,RU,1675531078
172,luanda,-8.8368,13.2343,84.2,70,40,11.5,AO,1675530566
173,placido de castro,-10.3353,-67.1856,74.3,97,100,0.45,BR,1675531079
174,elbrus,43.2577,42.6443,12.45,97,99,5.75,RU,1675531079
175,san juan de uraba,8.7592,-76.5297,83.35,65,99,8.03,CO,1675531080
176,saint marys,30.7305,-81.5465,64.42,66,19,15.01,US,1675531081
177,flinders,-34.5833,150.8552,62.38,67,0,7.63,AU,1675530667
178,coquimbo,-29.9533,-71.3436,67.73,77,75,9.22,CL,1675530395
179,severo-kurilsk,50.6789,156.125,25.84,72,100,8.08,RU,1675530645
180,gat,31.61,34.7642,54.39,100,21,6.44,IL,1675530841
181,saint anthony,45.0205,-93.218,22.21,67,0,8.05,US,1675531088
182,tefe,-3.3542,-64.7114,84.31,84,75,4.61,BR,1675531093
183,carnarvon,-24.8667,113.6333,78.17,77,2,5.82,AU,1675530639
184,dolinsk,47.35,142.8,-5.21,95,17,5.12,RU,1675531099
185,cherskiy,68.75,161.3,-35.3,100,93,4.32,RU,1675530611
186,ponta do sol,32.6667,-17.1,65.03,61,38,6.53,PT,1675530700
187,robertsport,6.7533,-11.3686,81.63,80,4,14.61,LR,1675531106
188,kitimat,54.0524,-128.6534,35.98,100,100,1.12,CA,1675530934
189,cidreira,-30.1811,-50.2056,80.44,60,29,12.86,BR,1675530715
190,port moresby,-9.4431,147.1797,76.46,83,100,4.29,PG,1675531112
191,prince rupert,54.3161,-130.3201,46.09,85,100,28.77,CA,1675531019
192,avera,33.194,-82.5271,45.37,35,0,9.28,US,1675530932
193,zhigansk,66.7697,123.3711,-42.61,96,49,12.26,RU,1675531114
194,male,4.1748,73.5089,82.35,83,75,6.91,MV,1675531114
195,kigoma,-4.8769,29.6267,77.59,78,75,0.0,TZ,1675531115
196,batemans bay,-35.7167,150.1833,54.54,78,0,4.97,AU,1675531116
197,siguiri,11.6667,-9.5,96.87,8,40,3.31,GN,1675531116
198,buraydah,26.326,43.975,63.05,34,1,10.31,SA,1675531117
199,qaanaaq,77.484,-69.3632,-3.98,62,88,7.02,GL,1675530647
200,sao filipe,14.8961,-24.4956,74.08,62,82,10.36,CV,1675530810
201,okhotsk,59.3833,143.3,-15.86,83,45,10.16,RU,1675531118
202,laguna,38.421,-121.4238,56.08,89,100,5.75,US,1675530851
203,serov,59.6033,60.5787,7.75,97,100,3.02,RU,1675531119
204,vila franca do campo,37.7167,-25.4333,63.01,76,61,7.27,PT,1675530600
205,dennery,13.8996,-60.8879,84.33,77,75,20.71,LC,1675531120
206,likhoslavl,57.1275,35.464,24.13,92,99,3.83,RU,1675531120
207,hengshui,37.7322,115.7011,36.19,49,0,8.77,CN,1675531121
208,nantucket,41.2835,-70.0995,9.09,56,0,20.71,US,1675530948
209,vorozhba,51.1733,34.2192,27.0,95,99,7.83,UA,1675531122
210,karaton,-6.3424,106.1045,75.49,91,100,4.29,ID,1675531123
211,kamsack,51.5667,-101.9009,21.33,91,100,3.27,CA,1675531123
212,buala,-8.145,159.5921,79.5,84,100,4.29,SB,1675530803
213,araguari,-18.6472,-48.1872,82.69,68,100,5.86,BR,1675531125
214,farafangana,-22.8167,47.8333,76.06,88,100,11.95,MG,1675531125
215,roald,62.5833,6.1333,42.94,65,75,18.41,NO,1675531126
216,port elizabeth,-33.918,25.5701,74.32,92,42,5.01,ZA,1675530550
217,kaliua,-5.0606,31.7936,71.13,69,64,2.62,TZ,1675531127
218,carutapera,-1.195,-46.02,82.6,77,71,10.47,BR,1675530662
219,saint-georges,12.0564,-61.7485,78.48,89,75,13.8,GD,1675531128
220,hasaki,35.7333,140.8333,37.8,59,0,18.14,JP,1675530631
221,ekhabi,53.5102,142.9671,-18.53,97,48,9.06,RU,1675531129
222,pitimbu,-7.4706,-34.8086,86.59,69,37,12.84,BR,1675530841
223,atambua,-9.1061,124.8925,73.17,92,100,2.77,ID,1675531129
224,dakar,14.6937,-17.4441,86.88,60,76,15.79,SN,1675531013
225,tagajo,38.2937,141.0056,33.01,73,4,10.85,JP,1675531130
226,chaoyang,41.5703,120.4586,23.86,38,2,5.23,CN,1675531131
227,maridi,4.9158,29.4742,82.72,21,55,4.25,SS,1675531131
228,opuwo,-18.0607,13.84,80.94,23,88,11.74,NA,1675531065
229,haines junction,60.7522,-137.5108,10.35,85,100,0.0,CA,1675531132
230,asau,46.4333,26.4,29.32,96,100,8.16,RO,1675530685
231,ejea de los caballeros,42.1263,-1.1372,50.22,57,0,17.07,ES,1675531133
232,ostersund,63.1792,14.6357,23.45,58,0,13.8,SE,1675531133
233,yulara,-25.2406,130.9889,69.76,33,0,10.47,AU,1675531134
234,moyale,3.5167,39.0584,76.95,25,76,11.99,KE,1675531134
235,mehamn,71.0357,27.8492,22.95,68,86,2.3,NO,1675530824
236,faya,18.3851,42.4509,55.92,70,74,4.63,SA,1675530874
237,maniitsoq,65.4167,-52.9,1.18,80,54,11.74,GL,1675530968
238,paamiut,61.994,-49.6678,9.39,76,100,12.77,GL,1675530699
239,samarai,-10.6167,150.6667,81.03,78,100,7.07,PG,1675531136
240,jitra,6.2681,100.4217,78.69,73,20,4.61,MY,1675531137
241,baykit,61.67,96.37,2.43,99,100,2.17,RU,1675531137
242,candelaria,13.9311,121.4233,75.38,87,87,5.59,PH,1675531138
243,sindor,62.8629,51.8905,-4.23,100,94,2.28,RU,1675531138
244,dunedin,-45.8742,170.5036,68.81,82,90,8.99,NZ,1675531139
245,anloga,5.7947,0.8973,83.12,80,57,15.46,GH,1675530989
246,shemonaikha,50.6328,81.9056,20.84,97,100,2.48,KZ,1675531140
247,collierville,35.042,-89.6645,40.57,79,0,9.22,US,1675531141
248,tuktoyaktuk,69.4541,-133.0374,-37.55,100,27,1.25,CA,1675530536
249,kulynychi,49.9823,36.3842,30.0,94,91,4.34,UA,1675531142
250,cabo san lucas,22.8909,-109.9124,75.61,47,20,3.44,MX,1675530532
251,llandrindod wells,52.2416,-3.3787,47.39,75,100,10.96,GB,1675531144
252,olinda,-8.0089,-34.8553,87.53,62,40,14.97,BR,1675530977
253,kalmunai,7.4167,81.8167,76.35,89,63,8.25,LK,1675531148
254,norman wells,65.282,-126.8329,-16.58,98,94,3.71,CA,1675530725
255,klaksvik,62.2266,-6.589,41.92,77,51,34.16,FO,1675530472
256,uarini,-2.99,-65.1083,76.87,91,100,2.42,BR,1675531156
257,mogadishu,2.0371,45.3438,76.86,77,32,21.45,SO,1675531159
258,sitka,57.0531,-135.33,33.69,86,100,3.44,US,1675530775
259,saskylakh,71.9167,114.0833,-47.61,100,58,1.41,RU,1675530693
260,qaqortoq,60.7167,-46.0333,23.61,61,100,12.86,GL,1675531162
261,saint cloud,45.5608,-94.1625,16.75,67,20,3.44,US,1675531130
262,cabra,37.4725,-4.4421,54.91,42,0,3.09,ES,1675531164
263,lunenburg,44.3835,-64.3155,5.05,75,100,36.82,CA,1675531173
264,tabas,33.5959,56.9244,46.62,49,33,2.3,IR,1675531173
265,dhidhdhoo,6.8833,73.1,80.6,75,100,6.91,MV,1675531175
266,kosh-agach,50.0,88.6667,-3.5,97,78,1.77,RU,1675530667
267,amalapuram,16.5833,82.0167,69.13,82,0,2.82,IN,1675531130
268,kaitangata,-46.2817,169.8464,67.55,73,81,5.17,NZ,1675530652
269,geraldton,-28.7667,114.6,73.81,88,1,5.75,AU,1675530684
270,nguruka,-5.1092,31.0419,71.67,72,79,2.26,TZ,1675531177
271,eureka,40.8021,-124.1637,53.2,79,100,7.0,US,1675530936
272,touros,-5.1989,-35.4608,86.22,62,100,14.72,BR,1675530695
273,mananjary,-21.2167,48.3333,75.78,90,69,7.85,MG,1675531178
274,porangatu,-13.4408,-49.1486,85.46,64,81,2.04,BR,1675531179
275,comodoro rivadavia,-45.8667,-67.5,73.26,49,0,10.36,AR,1675531180
276,xingyi,24.1877,102.817,48.83,89,100,3.2,CN,1675531180
277,port hueneme,34.1478,-119.1951,66.52,55,0,4.61,US,1675531181
278,kutum,14.2,24.6667,71.31,11,44,9.46,SD,1675531181
279,goderich,43.7501,-81.7165,18.91,72,94,27.31,CA,1675530798
280,huntingdon,52.3305,-0.1865,48.25,78,78,1.99,GB,1675531182
281,zeya,53.75,127.2667,-19.35,100,97,3.18,RU,1675531183
282,leh,34.1667,77.5833,7.5,78,22,3.42,IN,1675531183
283,sirvintos,55.05,24.95,26.24,90,90,11.68,LT,1675531184
284,taltal,-25.4,-70.4833,72.66,76,12,4.99,CL,1675531185
285,sisimiut,66.9395,-53.6735,-2.74,92,100,6.49,GL,1675530636
286,porto novo,6.4965,2.6036,85.82,73,93,12.59,BJ,1675531186
287,fallon,39.4735,-118.7774,36.91,80,75,5.75,US,1675530617
288,korcula,42.9622,17.1369,46.06,51,0,35.21,HR,1675531186
289,ilulissat,69.2167,-51.1,-0.38,85,100,2.3,GL,1675530726
290,marystown,47.1666,-55.1483,5.07,91,100,34.16,CA,1675531187
291,kasongo-lunda,-6.4667,16.8167,70.74,96,87,3.13,CD,1675531188
292,beisfjord,68.3751,17.5988,32.47,92,100,8.08,NO,1675531188
293,winder,33.9926,-83.7202,43.88,38,0,0.0,US,1675531189
294,namibe,-15.1961,12.1522,73.33,74,94,11.63,AO,1675530657
295,pop,40.8736,71.1089,43.29,73,90,2.3,UZ,1675531190
296,bindura,-17.3019,31.3306,68.58,87,93,2.46,ZW,1675531190
297,totness,5.8833,-56.3167,80.19,78,32,12.97,SR,1675531191
298,sioux lookout,50.1001,-91.917,4.32,90,96,3.89,CA,1675530645
299,burns lake,54.2331,-125.7533,31.42,99,100,3.98,CA,1675531192
300,baruun-urt,46.6806,113.2792,-1.46,84,33,3.33,MN,1675531193
301,cockburn town,21.4612,-71.1419,77.25,75,2,15.57,TC,1675530853
302,progreso,21.2833,-89.6667,73.51,75,46,16.4,MX,1675531194
303,bethel,41.3712,-73.414,14.02,43,0,4.61,US,1675530636
304,severnyy-kospashskiy,59.0925,57.8008,8.6,64,100,2.55,RU,1675531195
305,wanaka,-44.7,169.15,65.17,96,100,4.41,NZ,1675531195
306,vestmanna,62.1564,-7.1664,40.12,56,75,21.85,FO,1675531196
307,martvili,42.4144,42.3792,42.85,55,100,5.06,GE,1675531091
308,gushikawa,26.3544,127.8686,63.63,88,100,3.44,JP,1675530646
309,vanavara,60.34,102.2797,3.58,98,97,3.47,RU,1675531197
310,nianzishan,47.5167,122.8833,-2.22,94,24,4.29,CN,1675531198
311,namtsy,62.7161,129.6658,-28.08,100,99,1.95,RU,1675531198
312,kuryk,43.2,51.65,35.26,76,2,6.02,KZ,1675531198
313,santo tomas,14.1079,121.1414,75.56,81,84,7.02,PH,1675531199
314,talcahuano,-36.7167,-73.1167,64.08,82,100,10.36,CL,1675531200
315,manta,-0.95,-80.7333,82.18,74,75,5.75,EC,1675531200
316,glendive,47.1053,-104.7125,44.22,49,0,17.27,US,1675531201
317,olafsvik,64.8945,-23.7142,35.8,58,95,33.15,IS,1675530652
318,tura,25.5198,90.2201,59.76,47,1,2.26,IN,1675530639
319,tuatapere,-46.1333,167.6833,65.23,91,100,6.26,NZ,1675531205
320,navoi,40.0844,65.3792,42.28,93,100,2.3,UZ,1675531214
321,mahon,39.8885,4.2658,59.56,51,0,8.05,ES,1675530831
322,morondava,-20.2833,44.2833,82.15,76,0,11.01,MG,1675531217
323,palu,-0.8917,119.8707,75.2,93,99,2.62,ID,1675530839
324,luderitz,-26.6481,15.1594,68.5,71,23,21.94,NA,1675531220
325,pasighat,28.0667,95.3333,63.27,35,7,3.38,IN,1675531227
326,catuday,16.2923,119.8062,74.95,74,47,11.12,PH,1675531230
327,kidal,18.4411,1.4078,83.8,8,68,7.16,ML,1675531233
328,kolokani,13.5728,-8.0339,92.66,10,76,8.57,ML,1675531235
329,north bend,43.4065,-124.2243,52.07,90,0,5.75,US,1675530670
330,miyako,39.6367,141.9525,28.94,79,36,7.49,JP,1675531237
331,fayaoue,-20.65,166.5333,82.54,83,51,21.32,NC,1675531237
332,poum,-20.2333,164.0167,81.25,80,98,9.01,NC,1675530674
333,sawtell,-30.3833,153.1,66.22,88,1,4.61,AU,1675531238
334,rancho palos verdes,33.7445,-118.387,62.51,58,0,1.99,US,1675531239
335,nouakchott,18.0858,-15.9785,80.53,23,100,12.28,MR,1675531239
336,inhambane,-23.865,35.3833,77.76,82,30,10.83,MZ,1675530852
337,karratha,-20.7377,116.8463,87.26,50,47,11.48,AU,1675530690
338,antalaha,-14.9003,50.2788,78.57,85,15,10.4,MG,1675531241
339,kuusamo,65.9667,29.1833,3.24,85,0,1.14,FI,1675531241
340,gravdal,68.1214,13.5031,37.17,66,100,26.55,NO,1675531242
341,jefferson city,38.5767,-92.1735,50.86,42,0,11.99,US,1675530995
342,portland,45.5234,-122.6762,48.61,91,100,9.22,US,1675530502
343,bouna,9.2667,-3.0,98.67,11,11,6.51,CI,1675531243
344,port hardy,50.6996,-127.4199,44.78,93,75,25.32,CA,1675531243
345,ola,59.5833,151.2833,-13.49,88,89,7.99,RU,1675531244
346,tromso,69.6496,18.957,32.02,80,40,13.8,NO,1675531049
347,sao joao da barra,-21.6403,-41.0511,91.49,73,14,9.82,BR,1675530840
348,gouyave,12.1646,-61.7296,77.77,89,75,13.8,GD,1675531245
349,chicama,-7.8447,-79.1469,72.14,54,61,9.8,PE,1675531246
350,kaeo,-35.1,173.7833,68.32,94,85,4.52,NZ,1675530758
351,maceio,-9.6658,-35.7353,87.24,62,40,13.8,BR,1675530724
352,marshall,34.3834,-86.3333,49.32,43,0,4.61,US,1675531247
353,palmer,42.1584,-72.3287,10.49,24,20,8.05,US,1675531247
354,mecca,21.4267,39.8261,72.43,45,29,11.99,SA,1675530524
355,marawi,7.9986,124.2928,67.6,93,100,1.61,PH,1675531248
356,panzhihua,26.5851,101.7128,52.18,38,0,1.66,CN,1675531248
357,sulina,45.1559,29.6536,39.02,81,100,11.1,RO,1675531249
358,la poza,20.1167,-96.9667,69.3,49,1,6.42,MX,1675531250
359,nha trang,12.25,109.1833,75.2,83,75,4.52,VN,1675531250
360,bakel,14.905,-12.4568,91.51,7,97,9.4,SN,1675531251
361,krasnogvardeyskiy,57.3793,62.3195,5.13,93,70,4.34,RU,1675531252
362,mahibadhoo,3.7833,72.9667,80.04,73,79,7.81,MV,1675531252
363,college,64.8569,-147.8028,8.55,81,75,6.91,US,1675531253
364,mountain home,43.133,-115.6912,29.68,80,0,12.66,US,1675531140
365,clarence town,-32.5833,151.7833,67.86,45,0,3.31,AU,1675531254
366,severodvinsk,64.5635,39.8302,21.31,98,47,4.05,RU,1675530814
367,boueni,-12.9025,45.0761,84.18,76,98,8.03,YT,1675530719
368,taoudenni,22.6783,-3.9836,68.34,22,100,16.6,ML,1675531255
369,manturovo,58.3353,44.7619,19.45,98,96,3.96,RU,1675531256
370,corrales,35.2378,-106.6067,52.25,33,0,5.01,US,1675531256
371,hovd,48.0056,91.6419,4.86,81,9,2.21,MN,1675531257
372,grindavik,63.8424,-22.4338,34.27,75,40,26.46,IS,1675531259
373,mandera,3.9366,41.867,87.89,17,32,9.4,KE,1675531259
374,chokurdakh,70.6333,147.9167,-28.86,98,30,8.81,RU,1675530687
375,husavik,66.0449,-17.3389,26.98,69,2,12.75,IS,1675530661
376,atikokan,48.7555,-91.6216,7.66,89,99,4.25,CA,1675531260
377,yaan,7.3833,8.5667,98.53,11,68,2.53,NG,1675531261
378,otjimbingwe,-22.35,16.1333,78.96,56,83,7.09,NA,1675531262
379,petatlan,17.5167,-101.2667,89.4,33,0,5.77,MX,1675531266
380,rawson,-43.3002,-65.1023,90.59,25,2,5.1,AR,1675531253
381,sunds,56.2042,9.0127,33.69,80,75,5.75,DK,1675531268
382,san patricio,28.017,-97.5169,62.55,63,10,7.05,US,1675530708
383,maine-soroa,13.2114,12.0241,83.32,13,62,9.95,NE,1675531272
384,jalu,29.0331,21.5482,58.64,47,100,7.78,LY,1675531273
385,oskemen,49.9565,82.6119,17.56,93,100,2.24,KZ,1675531275
386,tautira,-17.7333,-149.15,80.29,76,75,13.96,PF,1675531277
387,poronaysk,49.2167,143.1167,-15.2,96,21,3.49,RU,1675530699
388,abha,18.2164,42.5053,57.02,82,0,6.91,SA,1675531278
389,lae,-6.7221,146.9847,76.15,95,100,4.68,PG,1675531281
390,khilok,51.3674,110.4676,-6.02,98,94,3.58,RU,1675531282
391,micheweni,-4.9667,39.8333,81.05,77,93,10.04,TZ,1675531284
392,brae,60.3964,-1.353,44.33,73,100,25.64,GB,1675531286
393,nome,64.5011,-165.4064,8.67,85,100,8.05,US,1675530772
394,petropavlovsk-kamchatskiy,53.0452,158.6483,1.99,72,0,8.95,RU,1675531290
395,talakan,50.3167,130.3667,-6.02,100,100,1.81,RU,1675531292
396,kralendijk,12.15,-68.2667,84.18,65,75,18.41,BQ,1675531116
397,holme,56.1138,10.1725,32.18,85,97,5.88,DK,1675531294
398,deputatskiy,69.3,139.9,-27.92,98,100,4.09,RU,1675530996
399,loandjili,-4.7561,11.8578,82.51,83,75,17.27,CG,1675531294
400,camacha,33.0833,-16.3333,60.22,63,40,17.27,PT,1675531295
401,zyryanka,65.75,150.85,-14.85,97,100,7.16,RU,1675531295
402,harlingen,26.1906,-97.6961,69.71,77,0,6.91,US,1675531068
403,krasnyy klyuch,55.3863,56.6529,6.33,99,99,2.95,RU,1675531296
404,anadyr,64.75,177.4833,-32.91,98,52,5.66,RU,1675530843
405,puerto narino,-3.7703,-70.3831,73.85,98,99,3.85,CO,1675531297
406,san pedro,14.35,121.0167,76.35,77,20,2.3,PH,1675531298
407,pevek,69.7008,170.3133,-35.0,100,76,5.3,RU,1675531298
408,abeche,13.8292,20.8324,81.81,11,96,9.06,TD,1675531299
409,bathsheba,13.2167,-59.5167,84.81,65,40,23.02,BB,1675530643
410,victor harbor,-35.5667,138.6167,57.69,78,6,4.83,AU,1675530825
411,pauini,-7.7136,-66.9764,77.38,92,100,2.3,BR,1675531302
412,saint-pierre,-21.3393,55.4781,80.28,74,20,17.27,RE,1675530777
413,te anau,-45.4167,167.7167,65.3,97,100,3.74,NZ,1675530825
414,arraial do cabo,-22.9661,-42.0278,94.96,55,0,13.8,BR,1675531303
415,leningradskiy,69.3833,178.4167,-26.37,98,99,4.63,RU,1675531303
416,caucaia,-3.7361,-38.6531,87.75,72,20,14.97,BR,1675531304
417,songjianghe,42.1859,127.479,4.77,88,5,6.33,CN,1675531305
418,porto seguro,-16.4497,-39.0647,86.52,70,40,20.71,BR,1675531305
419,sinnai,39.3042,9.2036,53.51,71,40,6.91,IT,1675531306
420,puerto penasco,31.3167,-113.5333,58.91,72,0,1.01,MX,1675531306
421,merauke,-8.4667,140.3333,77.27,89,100,6.38,ID,1675531307
422,bonthe,7.5264,-12.505,85.24,64,14,14.63,SL,1675531041
423,koumac,-20.5667,164.2833,79.27,83,90,3.38,NC,1675531307
424,rongcheng,30.634,117.8517,44.64,84,100,2.46,CN,1675531308
425,saint-augustin,51.226,-58.6502,3.76,91,100,31.56,CA,1675531309
426,longyearbyen,78.2186,15.6401,8.44,66,40,13.8,SJ,1675531309
427,srednekolymsk,67.45,153.6833,-27.42,99,100,4.14,RU,1675531310
428,belyy yar,53.6039,91.3903,-11.31,84,55,4.47,RU,1675531310
429,mingyue,43.1069,128.9217,4.87,93,27,2.13,CN,1675531311
430,zonguldak,41.25,31.8333,32.81,67,100,2.26,TR,1675531312
431,fort nelson,58.8053,-122.7002,-2.61,78,75,2.3,CA,1675531312
432,dwarka,22.2394,68.9678,70.27,61,44,11.43,IN,1675531313
433,chapais,49.7834,-74.8492,-16.82,83,56,7.7,CA,1675531313
434,nata,8.3333,-80.5167,87.93,47,48,19.73,PA,1675531314
435,pangnirtung,66.1451,-65.7125,-29.7,95,77,2.57,CA,1675530703
436,atherton,53.5237,-2.4935,50.36,83,100,1.99,GB,1675531314
437,himberg,48.0644,16.448,38.05,63,0,20.71,AT,1675531315
438,ulukulevo,54.4355,56.3221,7.05,97,95,1.77,RU,1675531315
439,paracuru,-3.41,-39.0306,83.1,60,70,13.11,BR,1675531316
440,shalinskoye,55.7228,93.7594,2.88,99,100,2.48,RU,1675531316
441,valleyview,55.0667,-117.2859,30.24,93,100,9.22,CA,1675531317
442,krasnaya gora,52.9995,31.6023,21.72,94,100,10.78,RU,1675531318
443,kisangani,0.5167,25.2,83.71,33,71,2.51,CD,1675531318
444,caxito,-8.5785,13.6643,83.17,68,61,10.89,AO,1675531319
445,ludvika,60.1496,15.1878,19.2,94,51,3.78,SE,1675531319
446,ancud,-41.8697,-73.8203,70.3,64,25,6.49,CL,1675530854
447,staryy nadym,65.6118,72.6842,13.64,96,100,6.6,RU,1675531320
448,general pico,-35.6566,-63.7568,91.42,21,0,1.1,AR,1675531321
449,los llanos de aridane,28.6585,-17.9182,60.55,71,40,9.22,ES,1675531321
450,walvis bay,-22.9575,14.5053,67.08,72,89,12.03,NA,1675531322
451,imbituba,-28.24,-48.6703,79.03,76,76,8.28,BR,1675531324
452,laurel,39.0993,-76.8483,29.62,34,0,6.91,US,1675531187
453,gondanglegi,-7.7479,112.0132,75.11,87,100,1.54,ID,1675531331
454,pyay,18.8167,95.2167,73.29,41,7,3.04,MM,1675531336
455,ahuimanu,21.4447,-157.8378,73.85,93,100,4.0,US,1675531344
456,kawalu,-7.3817,108.2082,73.31,93,100,2.39,ID,1675530845
457,banda aceh,5.5577,95.3222,77.47,84,92,2.19,ID,1675531354
458,freeport,40.6576,-73.5832,19.02,34,0,9.22,US,1675531355
459,nauta,-4.5061,-73.5757,85.03,54,93,4.05,PE,1675531355
460,sulangan,11.1373,123.7228,79.39,84,100,15.19,PH,1675531356
461,la paz,-16.5,-68.15,48.18,93,75,5.75,BO,1675531357
462,aykhal,66.0,111.5,-32.1,100,100,2.71,RU,1675531357
463,harper,4.375,-7.7169,83.75,72,40,10.56,LR,1675530876
464,ternate,0.8,127.4,78.66,82,100,8.41,ID,1675531100
465,kabare,-2.4683,28.8242,63.34,80,87,1.28,CD,1675531358
466,nizhnyaya poyma,56.1622,97.1933,-0.6,100,100,2.35,RU,1675531359
467,iqaluit,63.7506,-68.5145,-31.27,59,20,16.11,CA,1675531243
468,kanker,20.2719,81.4931,61.36,21,18,3.83,IN,1675531360
469,almeirim,-1.5233,-52.5817,85.41,67,73,5.28,BR,1675531360
470,mpika,-11.8343,31.4529,63.43,97,46,3.44,ZM,1675531361
471,khawhai,23.3667,93.1167,43.45,42,100,2.39,IN,1675531361
472,padang,-0.9492,100.3543,77.05,85,100,2.89,ID,1675531362
473,paragominas,-2.9667,-47.4833,83.91,73,59,5.68,BR,1675531362
474,alofi,-19.0595,-169.9187,76.89,88,100,3.44,NU,1675530855
475,puerto ayacucho,5.6639,-67.6236,94.86,37,24,3.18,VE,1675530872
476,piltene,57.2243,21.6744,28.35,86,100,9.22,LV,1675531363
477,phan thiet,10.9333,108.1,72.57,87,67,10.54,VN,1675531364
478,kilindoni,-7.9139,39.6668,81.54,74,98,6.13,TZ,1675531364
479,wencheng,33.0559,113.7978,37.22,72,21,1.57,CN,1675531365
480,kupang,-10.1667,123.5833,77.99,87,100,14.0,ID,1675531365
481,vila velha,-20.3297,-40.2925,91.35,67,20,17.27,BR,1675531366
482,manyana,-23.4,21.7167,81.05,48,80,13.04,BW,1675531367
483,lavrentiya,65.5833,-171.0,-15.39,94,74,7.2,RU,1675531367
484,lasa,46.6166,10.7002,40.08,93,27,9.91,IT,1675531368
485,reconquista,-29.15,-59.65,91.24,22,59,10.78,AR,1675531368
486,vardo,70.3705,31.1107,13.98,92,100,17.27,NO,1675530834
487,zarubino,42.63,131.0922,19.65,69,26,7.54,RU,1675531369
488,sharlyk,52.9167,54.75,7.54,91,100,4.36,RU,1675531370
489,seoul,37.5683,126.9778,26.04,86,0,2.3,KR,1675531370
490,dragor,55.5946,12.6664,30.61,65,71,3.44,DK,1675531371
491,ketchikan,55.3422,-131.6461,44.58,93,100,3.44,US,1675531354
492,el rusio,14.4667,-86.3667,78.4,40,23,5.75,HN,1675531372
493,alice springs,-23.7,133.8833,56.75,82,0,0.0,AU,1675531100
494,teahupoo,-17.8333,-149.2667,75.16,76,80,13.82,PF,1675531373
495,katsuura,35.1333,140.3,44.28,65,0,11.72,JP,1675531373
496,oyek,52.5861,104.4556,0.37,99,100,0.83,RU,1675531374
497,adamovka,51.5223,59.9396,0.39,92,19,10.16,RU,1675531374
498,wageningen,51.9667,5.6667,48.11,83,100,2.42,NL,1675531375
499,grand-santi,4.25,-54.3833,79.81,89,85,4.38,GF,1675531375
500,valparaiso,-33.0393,-71.6273,71.24,77,100,19.57,CL,1675531214
501,xining,36.6167,101.7667,28.92,33,27,0.65,CN,1675531377
502,adrar,20.5022,-10.0711,70.36,12,93,12.86,MR,1675531377
503,januaria,-15.4833,-44.3667,89.02,47,11,2.62,BR,1675531378
504,nampula,-15.1165,39.2666,82.35,69,20,4.61,MZ,1675531379
505,mezen,65.8522,44.24,1.42,99,62,4.81,RU,1675531379
506,kavaratti,10.5669,72.642,81.32,71,37,7.7,IN,1675531380
507,farah,32.5,62.5,53.2,44,5,1.9,AF,1675531381
508,leshukonskoye,64.8989,45.7622,4.14,99,100,2.75,RU,1675531381
509,safford,32.834,-109.7076,60.12,31,0,10.36,US,1675531259
510,mareeba,-17.0,145.4333,76.44,96,100,3.0,AU,1675531384
511,nova russas,-4.7067,-40.5631,98.4,25,63,8.46,BR,1675531385
512,kyshtovka,56.555,76.6271,-0.58,100,95,0.67,RU,1675531387
513,jinchang,38.4953,102.1739,29.17,35,85,4.29,CN,1675531389
514,santana,-0.0583,-51.1817,78.98,94,75,4.61,BR,1675531392
515,sorong,-0.8833,131.25,76.01,92,100,5.77,ID,1675531395
516,argentan,48.75,-0.0167,45.59,86,100,5.73,FR,1675531398
517,nouadhibou,20.931,-17.0347,75.18,23,73,14.97,MR,1675531403
518,saint-francois,46.4154,3.9054,47.64,91,100,9.22,FR,1675531405
519,melnikovo,56.5558,84.085,-2.36,100,96,2.17,RU,1675531408
520,svetlaya,46.5389,138.3297,9.1,69,7,7.56,RU,1675531412
521,mwandiga,-4.83,29.6581,76.39,78,75,0.0,TZ,1675531414
522,parral,26.9333,-105.6667,56.73,29,26,1.21,MX,1675531415
523,rocha,-34.4833,-54.3333,73.31,64,26,19.26,UY,1675530672
524,ugoofaaru,5.6667,73.0,80.78,71,100,4.14,MV,1675531290
525,pouebo,-20.4,164.5667,79.29,87,92,12.44,NC,1675531416
526,port hawkesbury,45.6169,-61.3485,-5.42,82,100,26.46,CA,1675531417
527,konevo,62.1215,39.3192,14.36,97,100,3.71,RU,1675531417
528,namie,37.4833,141.0,33.71,69,5,10.54,JP,1675531418
529,chimbote,-9.0853,-78.5783,76.87,68,65,8.77,PE,1675531418
530,homer,59.6425,-151.5483,24.67,93,0,0.0,US,1675531419
531,krasnik,50.9236,22.2271,26.47,86,91,11.23,PL,1675531419
532,plettenberg bay,-34.0527,23.3716,74.57,71,64,11.1,ZA,1675531420
533,yei,4.095,30.6779,81.97,23,33,3.58,SS,1675531420
534,novopavlovka,51.2172,109.2091,-10.05,100,99,1.3,RU,1675531421
535,thinadhoo,0.5333,72.9333,81.36,68,57,14.29,MV,1675530554
536,hjelset,62.7833,7.4833,38.98,75,100,6.91,NO,1675531422
537,dalbandin,28.8947,64.4101,64.67,42,8,3.91,PK,1675531422
538,mackenzie,55.2999,-123.1698,32.22,93,100,8.05,CA,1675531423
539,muisne,0.6,-80.0333,76.1,89,98,7.09,EC,1675531424
540,havre-saint-pierre,50.2334,-63.5986,3.2,65,100,26.46,CA,1675531424
541,greymouth,-42.4667,171.2,66.58,94,100,10.11,NZ,1675531425
542,laon,49.5667,3.6667,47.01,88,100,4.38,FR,1675531425
543,marsa matruh,31.3525,27.2453,58.32,61,3,12.59,EG,1675530874
544,nosy varika,-20.5833,48.5333,75.58,89,59,4.85,MG,1675531426
545,ishigaki,24.3448,124.1572,68.13,83,100,12.66,JP,1675531427
546,chipinge,-20.1883,32.6236,66.51,87,89,2.51,ZW,1675531427
547,gazimurskiy zavod,51.5461,118.3266,-21.26,100,93,2.08,RU,1675531428
548,baracoa,20.3467,-74.4958,82.27,60,11,5.06,CU,1675531429
549,aswan,24.0934,32.907,65.5,34,0,9.22,EG,1675531340
550,isla aguada,18.7833,-91.4667,75.24,67,62,11.41,MX,1675531292
551,samoded,63.6083,40.5111,9.93,98,99,3.24,RU,1675531430
552,pisco,-13.7,-76.2167,73.45,88,75,9.22,PE,1675531430
553,opotiki,-38.0833,177.2833,70.39,95,100,2.84,NZ,1675531431
554,kroya,-7.6331,109.2461,77.16,90,100,4.09,ID,1675531431
555,scarborough,54.2797,-0.4044,47.93,80,98,7.0,GB,1675531292
556,wanning,18.8003,110.3967,71.56,94,100,7.99,CN,1675531432
557,namatanai,-3.6667,152.4333,78.24,84,100,4.25,PG,1675531433
558,salinopolis,-0.6136,-47.3561,82.04,78,100,11.88,BR,1675531433
559,kropotkin,45.4375,40.5756,35.78,97,100,3.94,RU,1675531152
560,razdolnoye,43.55,131.9167,-8.99,94,29,1.59,RU,1675531434
561,iquitos,-3.7481,-73.2472,82.44,78,75,10.36,PE,1675531434
562,dabola,10.75,-11.1167,95.63,9,32,4.63,GN,1675531435
563,duzce,40.8389,31.1639,39.11,68,100,4.92,TR,1675531435
564,fengzhen,40.4394,113.1536,19.62,38,8,3.74,CN,1675531436
565,ust-labinsk,45.2125,39.6864,35.04,98,100,5.79,RU,1675531437
566,margate,51.3813,1.3862,48.9,75,100,4.0,GB,1675531437
567,falmouth,50.1544,-5.0711,49.1,87,100,5.75,GB,1675531438
568,gizo,-8.103,156.8419,81.45,77,94,5.46,SB,1675531438
569,villa florida,-26.3833,-57.15,96.24,21,36,8.72,PY,1675531439
570,yumen,40.2833,97.2,26.02,37,15,9.44,CN,1675531440
571,henties bay,-22.116,14.2845,65.39,83,100,10.11,NA,1675531440
572,saint-leu,-21.15,55.2833,79.66,81,78,7.85,RE,1675531441
573,bentiu,9.2333,29.8333,84.78,14,77,5.35,SS,1675531430
574,bud,39.447,-86.1758,38.05,45,7,17.47,US,1675531445
575,talnakh,69.4865,88.3972,5.92,96,100,5.82,RU,1675531447
576,sibolga,1.7427,98.7792,77.92,81,100,2.46,ID,1675531451
577,ulkan,57.243,107.3223,7.95,96,100,4.54,RU,1675531460
578,pangai,-19.8,-174.35,81.12,74,100,24.34,TO,1675531464
579,landerneau,48.4525,-4.2525,47.79,74,100,3.44,FR,1675531470
580,vangaindrano,-23.35,47.6,74.52,91,100,7.56,MG,1675531472
581,cayenne,4.9333,-52.3333,77.04,100,100,2.3,GF,1675531473
582,beni mazar,28.4962,30.8029,58.32,32,71,6.24,EG,1675531474
583,shimoda,34.6667,138.95,45.3,67,0,10.65,JP,1675531424
