City_ID,City,Lat,Lng,Max Temp,Humidity,Cloudiness,Wind Speed,Country,Date
0,bluff,-46.6,168.3333,59.32,80,99,24.25,NZ,1675645011
1,inuvik,68.3499,-133.7218,-31.94,68,20,2.3,CA,1675645011
2,rikitea,-23.1203,-134.9692,79.14,75,3,14.03,PF,1675644812
3,hilo,19.7297,-155.09,77.29,85,75,5.99,US,1675644988
4,punta arenas,-53.15,-70.9167,50.11,71,75,18.41,CL,1675645012
5,saint-michel-des-saints,46.6834,-73.9159,24.94,98,100,1.68,CA,1675645013
6,hithadhoo,-0.6,73.0833,80.92,70,97,10.47,MV,1675645013
7,hermanus,-34.4187,19.2345,70.81,88,18,11.18,ZA,1675645014
8,vaini,-21.2,-175.2,82.56,78,75,2.3,TO,1675645014
9,goderich,43.7501,-81.7165,35.92,80,100,6.91,CA,1675645015
10,kroya,-7.6331,109.2461,79.83,78,99,0.58,ID,1675645015
11,tacarigua,10.0862,-67.9198,72.64,85,81,3.98,VE,1675645016
12,atuona,-9.8,-139.0333,78.76,74,19,17.54,PF,1675645016
13,lebu,-37.6167,-73.65,61.0,90,1,18.12,CL,1675645017
14,lima,-12.0432,-77.0282,77.9,75,0,13.8,PE,1675645017
15,tharad,24.3961,71.6267,62.28,81,1,4.76,IN,1675645018
16,kruisfontein,-34.0033,24.7314,72.88,90,89,5.32,ZA,1675645018
17,akyab,20.15,92.9,62.38,54,7,5.82,MM,1675645019
18,busselton,-33.65,115.3333,74.19,59,0,11.52,AU,1675645020
19,clyde river,70.4692,-68.5914,-19.97,69,0,8.05,CA,1675645020
20,kirkenes,69.7271,30.0458,25.02,93,100,9.22,NO,1675645021
21,ilam,26.9167,87.9167,50.47,73,3,4.7,NP,1675645021
22,port elizabeth,-33.918,25.5701,75.09,93,75,10.36,ZA,1675645022
23,souillac,-20.5167,57.5167,77.38,88,40,3.44,MU,1675645022
24,kapaa,22.0752,-159.319,80.58,84,100,12.66,US,1675645023
25,samarai,-10.6167,150.6667,82.18,79,99,11.74,PG,1675644885
26,auki,-8.7676,160.7034,76.17,94,100,8.48,SB,1675645024
27,mbandaka,0.0487,18.2603,77.76,63,100,4.54,CD,1675645025
28,cape town,-33.9258,18.4232,72.01,76,0,15.01,ZA,1675644998
29,airai,-8.9266,125.4092,68.74,73,89,3.47,TL,1675645027
30,utinga,-5.8172,-35.3954,81.45,78,40,6.91,BR,1675645027
31,amberley,39.2048,-84.428,47.75,68,0,6.91,US,1675645028
32,palu,-0.8917,119.8707,84.27,67,42,0.92,ID,1675644979
33,arraial do cabo,-22.9661,-42.0278,75.7,91,94,7.72,BR,1675645029
34,port lincoln,-34.7333,135.8667,67.44,67,4,13.6,AU,1675645030
35,longyearbyen,78.2186,15.6401,28.24,74,40,2.3,SJ,1675645031
36,panji,-7.7253,114.0995,79.66,76,100,0.67,ID,1675645032
37,road town,18.4167,-64.6167,78.84,73,40,12.66,VG,1675645033
38,mahebourg,-20.4081,57.7,78.26,88,40,3.44,MU,1675645033
39,nishihara,26.1842,127.7558,65.48,100,100,6.91,JP,1675645034
40,severo-kurilsk,50.6789,156.125,26.91,73,100,9.57,RU,1675645035
41,kangaatsiaq,68.3065,-53.4641,-8.01,89,100,13.18,GL,1675645036
42,torbay,47.6666,-52.7314,24.58,77,75,12.66,CA,1675645036
43,khonsa,27.0167,95.5667,53.74,54,15,3.06,IN,1675645039
44,puerto ayora,-0.7393,-90.3518,79.56,91,37,8.01,EC,1675645041
45,ahuimanu,21.4447,-157.8378,82.11,75,40,18.41,US,1675645042
46,kapuskasing,49.4169,-82.4331,-2.11,84,20,2.3,CA,1675645043
47,tasiilaq,65.6145,-37.6368,22.03,95,100,4.54,GL,1675645044
48,ponta do sol,32.6667,-17.1,61.43,51,4,5.53,PT,1675645045
49,pedasi,7.5333,-80.0333,74.07,75,18,21.32,PA,1675645046
50,lasa,46.6166,10.7002,32.88,92,49,6.02,IT,1675645046
51,eureka,40.8021,-124.1637,48.92,93,100,5.01,US,1675645047
52,leningradskiy,69.3833,178.4167,-20.79,98,100,4.54,RU,1675645047
53,ushuaia,-54.8,-68.3,44.26,65,40,24.16,AR,1675644825
54,east london,-33.0153,27.9116,74.05,85,82,13.02,ZA,1675645034
55,katsuura,35.1333,140.3,49.82,67,9,5.5,JP,1675645049
56,saint-augustin,51.226,-58.6502,1.85,95,100,2.91,CA,1675645049
57,albany,42.6001,-73.9662,40.89,58,100,4.72,US,1675644972
58,victoria,22.2855,114.1577,67.32,87,84,3.0,HK,1675644875
59,vila velha,-20.3297,-40.2925,80.94,84,40,9.22,BR,1675645050
60,chuy,-33.6971,-53.4616,66.11,81,0,5.06,UY,1675645051
61,pangnirtung,66.1451,-65.7125,-35.84,95,95,4.7,CA,1675645051
62,mataura,-46.1927,168.8643,62.33,69,98,10.96,NZ,1675645052
63,upernavik,72.7868,-56.1549,-13.27,94,100,6.8,GL,1675645053
64,maldonado,-34.6667,-54.9167,67.39,90,0,6.2,UY,1675645054
65,qaanaaq,77.484,-69.3632,-1.73,52,95,2.55,GL,1675645054
66,sur,22.5667,59.5289,70.27,69,12,6.58,OM,1675645055
67,tricase,39.9304,18.3553,38.35,57,9,27.36,IT,1675645055
68,kununurra,-15.7667,128.7333,87.78,55,11,5.75,AU,1675645056
69,sao joao da barra,-21.6403,-41.0511,77.09,95,11,1.28,BR,1675645056
70,heythuysen,51.25,5.8986,36.84,87,81,7.27,NL,1675645057
71,razole,16.4833,81.8333,64.06,94,78,3.09,IN,1675645057
72,georgetown,5.4112,100.3354,78.73,100,20,2.3,MY,1675644847
73,viedma,-40.8135,-62.9967,72.97,49,74,16.87,AR,1675645058
74,thinadhoo,0.5333,72.9333,80.73,69,79,8.32,MV,1675645059
75,carutapera,-1.195,-46.02,76.12,93,100,6.71,BR,1675645059
76,port hedland,-20.3167,118.5667,93.25,46,0,6.91,AU,1675645060
77,provideniya,64.3833,-173.3,6.91,72,100,13.42,RU,1675645060
78,port alfred,-33.5906,26.891,73.18,94,78,10.54,ZA,1675645061
79,cabedelo,-6.9811,-34.8339,81.27,79,18,10.09,BR,1675644863
80,mackay,-21.15,149.2,85.68,79,77,11.81,AU,1675645062
81,butaritari,3.0707,172.7902,80.44,83,100,17.0,KI,1675645062
82,tuatapere,-46.1333,167.6833,61.54,78,91,10.56,NZ,1675644779
83,qaqortoq,60.7167,-46.0333,10.31,83,96,18.61,GL,1675645063
84,kandrian,-6.2167,149.55,85.93,66,100,5.88,PG,1675645064
85,christchurch,-43.5333,172.6333,88.41,29,0,13.8,NZ,1675645050
86,araraquara,-21.7944,-48.1756,69.03,90,99,0.51,BR,1675645064
87,fushan,37.4958,121.2581,38.95,66,0,0.92,CN,1675645065
88,polunochnoye,60.8697,60.4153,-3.87,100,75,2.77,RU,1675645065
89,kralendijk,12.15,-68.2667,78.78,78,0,19.57,BQ,1675644994
90,ishigaki,24.3448,124.1572,73.53,83,75,16.11,JP,1675645066
91,mulege,26.8833,-111.9833,65.37,39,99,1.34,MX,1675645067
92,port hardy,50.6996,-127.4199,44.78,81,100,3.44,CA,1675645067
93,avarua,-21.2078,-159.775,77.05,88,75,13.8,CK,1675645068
94,sinnar,13.5691,33.5672,73.78,24,88,10.27,SD,1675645068
95,korla,41.7597,86.1469,26.73,69,88,2.86,CN,1675645069
96,dhidhdhoo,6.8833,73.1,79.83,76,97,3.24,MV,1675645069
97,bitlis,38.5,42.25,26.82,97,100,3.67,TR,1675645070
98,bengkulu,-3.8004,102.2655,76.26,80,100,5.7,ID,1675645070
99,barrow,71.2906,-156.7887,-18.38,91,100,0.0,US,1675645071
100,touros,-5.1989,-35.4608,79.92,76,8,11.34,BR,1675644889
101,mount isa,-20.7333,139.5,82.17,69,100,10.36,AU,1675645072
102,dingle,10.9995,122.6711,79.88,81,74,9.6,PH,1675645072
103,jamestown,42.097,-79.2353,40.71,70,100,10.36,US,1675644885
104,ribeira grande,38.5167,-28.7,61.77,91,100,14.0,PT,1675645073
105,esperance,-33.8667,121.9,77.25,45,79,19.55,AU,1675645074
106,buala,-8.145,159.5921,76.89,93,100,10.8,SB,1675645074
107,skjervoy,70.0311,20.9714,37.4,76,100,29.28,NO,1675645075
108,lang suan,9.9456,99.0785,77.5,82,85,2.01,TH,1675645075
109,iskateley,67.6803,53.1512,-1.86,98,46,7.85,RU,1675645076
110,churapcha,62.0025,132.4325,-28.68,96,100,4.29,RU,1675645076
111,ozernovskiy,51.5,156.5167,26.11,76,99,4.83,RU,1675645077
112,isla aguada,18.7833,-91.4667,74.88,82,0,15.39,MX,1675645077
113,lancaster,40.2504,-76.2499,41.27,66,0,3.44,US,1675645078
114,yellowknife,62.456,-114.3525,-4.45,77,100,12.66,CA,1675645079
115,hambantota,6.1241,81.1185,73.74,100,40,3.44,LK,1675645079
116,springfield,37.2153,-93.2982,50.43,56,15,1.99,US,1675644956
117,saint-philippe,-21.3585,55.7679,76.59,85,100,10.4,RE,1675645080
118,saskylakh,71.9167,114.0833,-43.11,100,94,3.85,RU,1675645080
119,iqaluit,63.7506,-68.5145,-18.31,68,75,9.22,CA,1675645081
120,mitsamiouli,-11.3847,43.2844,81.16,77,100,7.18,KM,1675645082
121,ust-tsilma,65.441,52.1498,-13.95,100,100,2.66,RU,1675645082
122,los llanos de aridane,28.6585,-17.9182,56.95,72,20,8.05,ES,1675645083
123,zapolyarnyy,69.4154,30.8136,20.48,91,100,12.06,RU,1675645083
124,matamoros,25.5333,-103.25,67.35,18,0,6.2,MX,1675645022
125,tuktoyaktuk,69.4541,-133.0374,-45.4,66,20,3.44,CA,1675645084
126,nauta,-4.5061,-73.5757,73.72,92,100,2.82,PE,1675645085
127,bredasdorp,-34.5322,20.0403,68.43,90,24,9.19,ZA,1675645085
128,matagami,49.7502,-77.6328,-2.09,78,100,4.61,CA,1675645086
129,fomboni,-12.28,43.7425,81.86,76,100,6.08,KM,1675645086
130,kemijarvi,66.7131,27.4306,10.98,97,94,2.33,FI,1675645087
131,mecca,21.4267,39.8261,68.13,70,13,1.95,SA,1675645087
132,skibbereen,51.55,-9.2667,49.1,96,31,9.78,IE,1675644857
133,adeje,28.1227,-16.726,63.57,48,20,8.05,ES,1675645088
134,luderitz,-26.6481,15.1594,61.66,94,92,6.76,NA,1675645089
135,puerto madryn,-42.7692,-65.0385,64.09,71,1,25.81,AR,1675645089
136,durango,24.8333,-104.8333,61.05,21,0,6.69,MX,1675644996
137,havelock,34.8791,-76.9013,64.38,80,100,7.0,US,1675644933
138,diffa,13.3154,12.6113,73.85,23,100,8.05,NE,1675645090
139,new norfolk,-42.7826,147.0587,71.92,55,50,4.0,AU,1675645091
140,grindavik,63.8424,-22.4338,39.15,65,75,34.52,IS,1675645091
141,sitka,57.0531,-135.33,42.69,61,100,20.71,US,1675645092
142,yulara,-25.2406,130.9889,83.64,13,0,12.64,AU,1675645093
143,saint george,37.1041,-113.5841,46.99,66,100,20.71,US,1675644904
144,mana,5.6592,-53.7767,75.25,88,100,11.74,GF,1675645093
145,veraval,20.9,70.3667,68.31,51,0,11.86,IN,1675645094
146,dikson,73.5069,80.5464,-1.86,97,100,2.33,RU,1675645094
147,maniitsoq,65.4167,-52.9,5.9,83,100,13.94,GL,1675645095
148,coquimbo,-29.9533,-71.3436,65.93,88,0,9.22,CL,1675644967
149,pangoa,-12.1167,-73.0,66.88,99,93,0.81,PE,1675645096
150,machesney park,42.3472,-89.039,30.42,89,7,5.86,US,1675645096
151,nanortalik,60.1432,-45.2371,19.08,77,100,29.04,GL,1675645097
152,wyndham,37.6985,-77.6125,50.79,69,0,6.91,US,1675645098
153,olinda,-8.0089,-34.8553,82.13,74,20,3.44,BR,1675645098
154,ilula,-7.6766,36.0366,60.66,90,100,2.44,TZ,1675645099
155,pacific grove,36.6177,-121.9166,54.43,78,75,15.01,US,1675645100
156,theodoriana,39.4356,21.21,25.45,67,100,6.87,GR,1675645100
157,mao,39.8885,4.2658,52.36,62,75,20.71,ES,1675645101
158,venado tuerto,-33.7456,-61.9688,76.77,31,8,7.47,AR,1675645101
159,isangel,-19.55,169.2667,86.32,67,100,2.82,VU,1675645102
160,ibra,22.6906,58.5334,65.39,58,40,2.71,OM,1675645095
161,ranong,9.9658,98.6348,73.33,85,100,4.07,TH,1675645102
162,baykit,61.67,96.37,-0.44,100,95,3.0,RU,1675644824
163,zhezkazgan,47.8043,67.7144,24.78,93,100,8.95,KZ,1675645103
164,constitucion,-35.3333,-72.4167,57.88,95,14,4.79,CL,1675645104
165,tevaitoa,-16.7833,-151.5,81.84,74,6,15.05,PF,1675645104
166,filingue,14.3521,3.3168,77.67,14,100,12.17,NE,1675645105
167,nexo,55.0607,15.1306,33.89,88,100,7.45,DK,1675645105
168,beloha,-25.1667,45.05,70.86,92,100,10.74,MG,1675645106
169,longhua,23.6137,114.1919,63.37,94,100,1.61,CN,1675645106
170,tazmalt,36.3868,4.3989,46.56,83,40,3.04,DZ,1675645107
171,ahipara,-35.1667,173.1667,68.32,94,100,4.76,NZ,1675645107
172,pisco,-13.7,-76.2167,75.25,88,0,16.11,PE,1675645108
173,baoding,38.8511,115.4903,36.12,42,100,9.6,CN,1675645108
174,cortez,37.3489,-108.5859,48.96,32,0,0.0,US,1675645109
175,dunedin,-45.8742,170.5036,70.81,57,26,8.99,NZ,1675645109
176,mayskiy,47.6931,40.1025,29.61,93,100,11.52,RU,1675645110
177,dunmore town,25.5,-76.65,76.41,78,30,16.26,BS,1675645110
178,rio pomba,-21.2747,-43.1792,72.41,88,83,3.11,BR,1675645111
179,bubaque,11.2833,-15.8333,76.14,60,100,17.27,GW,1675645111
180,nago,26.5881,127.9761,65.25,84,100,16.4,JP,1675645112
181,aksu,41.1231,80.2644,22.46,79,100,2.51,CN,1675645113
182,zhirnovsk,50.9845,44.7735,4.5,98,88,4.5,RU,1675645114
183,richards bay,-28.783,32.0377,73.2,87,68,4.03,ZA,1675645114
184,margate,51.3813,1.3862,41.7,89,23,3.0,GB,1675645115
185,portland,45.5234,-122.6762,50.95,89,100,9.22,US,1675644956
186,meulaboh,4.1363,96.1285,76.08,86,100,6.38,ID,1675645115
187,hobyo,5.3505,48.5268,76.12,77,95,15.21,SO,1675645116
188,stornoway,58.2093,-6.3865,48.92,88,100,20.71,GB,1675645117
189,hervey bay,-25.2986,152.8535,80.89,77,67,19.73,AU,1675645117
190,gorontalo,0.5412,123.0595,82.27,66,89,2.66,ID,1675645118
191,saint-pierre,-21.3393,55.4781,76.68,78,0,4.61,RE,1675644945
192,pitimbu,-7.4706,-34.8086,81.19,79,19,9.19,BR,1675645118
193,champerico,14.3,-91.9167,86.54,71,2,8.32,GT,1675645119
194,belaya gora,68.5333,146.4167,-40.95,100,99,2.35,RU,1675645119
195,mataram,-8.5833,116.1167,76.01,89,100,2.86,ID,1675645120
196,mumbwa,-14.9783,27.0619,63.66,97,100,3.91,ZM,1675645121
197,norman wells,65.282,-126.8329,-14.76,76,100,0.0,CA,1675645121
198,quatre cocos,-20.2078,57.7625,78.1,83,100,9.71,MU,1675645122
199,hammerfest,70.6634,23.6821,37.85,65,75,10.36,NO,1675645122
200,tefe,-3.3542,-64.7114,72.61,98,100,3.22,BR,1675645123
201,kitimat,54.0524,-128.6534,39.9,73,100,4.5,CA,1675645123
202,maputo,-25.9653,32.5892,73.08,88,40,10.36,MZ,1675645124
203,kokstad,-30.5472,29.4241,57.33,90,1,4.38,ZA,1675645124
204,tucuman,-26.8241,-65.2226,75.2,83,20,1.14,AR,1675645125
205,castro,-24.7911,-50.0119,63.5,84,9,5.64,BR,1675645125
206,nakusp,50.2499,-117.8023,37.74,93,100,4.61,CA,1675645126
207,guerrero negro,27.9769,-114.0611,60.98,77,96,18.86,MX,1675645055
208,klaksvik,62.2266,-6.589,49.12,90,100,33.22,FO,1675645126
209,nikolskoye,59.7035,30.7861,26.49,94,100,7.16,RU,1675645127
210,carnarvon,-24.8667,113.6333,80.37,62,0,16.51,AU,1675645127
211,sabang,5.8933,95.3214,81.28,70,89,8.99,ID,1675645128
212,nchelenge,-9.3451,28.734,67.37,89,93,0.45,ZM,1675645128
213,nouakchott,18.0858,-15.9785,66.13,35,49,14.83,MR,1675645060
214,pindiga,9.9833,10.9333,75.65,20,100,9.42,NG,1675645129
215,kavieng,-2.5744,150.7967,83.75,70,24,5.61,PG,1675645130
216,qasigiannguit,68.8193,-51.1922,-8.07,98,100,11.21,GL,1675645130
217,camabatela,-8.1881,15.375,61.81,92,100,0.29,AO,1675645131
218,milas,37.3164,27.7839,40.35,60,75,18.41,TR,1675645131
219,palembang,-2.9167,104.7458,75.29,94,20,4.61,ID,1675645132
220,escalerillas,22.1333,-101.0667,58.3,30,0,10.09,MX,1675645132
221,hobart,-42.8794,147.3294,72.27,52,40,23.02,AU,1675645024
222,chaozhou,23.6651,116.6379,60.66,91,96,0.58,CN,1675645133
223,rosario,-32.9468,-60.6393,82.94,44,0,3.44,AR,1675645007
224,srednekolymsk,67.45,153.6833,-29.33,97,100,4.83,RU,1675645134
225,aswan,24.0934,32.907,58.3,30,0,0.0,EG,1675644863
226,beringovskiy,63.05,179.3167,-17.18,92,97,11.7,RU,1675645135
227,imbituba,-28.24,-48.6703,71.44,85,4,4.65,BR,1675644874
228,malinovskiy,61.1953,62.8397,1.89,98,100,2.82,RU,1675645136
229,vardo,70.3705,31.1107,21.18,86,100,14.97,NO,1675645137
230,honiara,-9.4333,159.95,77.13,94,100,7.72,SB,1675645137
231,kipushi,-11.7667,27.2333,62.08,98,100,4.05,CD,1675645138
232,ravar,31.2656,56.8055,45.93,36,93,1.66,IR,1675645138
233,carroll,39.5501,-77.0164,45.55,55,0,4.61,US,1675645139
234,dwarka,22.2394,68.9678,69.44,80,7,9.8,IN,1675645139
235,hamilton,39.1834,-84.5333,47.98,68,0,6.91,US,1675645140
236,laguna,38.421,-121.4238,55.69,64,0,12.66,US,1675645140
237,chokurdakh,70.6333,147.9167,-41.93,100,95,0.96,RU,1675645141
238,lorengau,-2.0226,147.2712,83.26,76,100,4.63,PG,1675645141
239,coahuayana,18.7333,-103.6833,73.83,75,0,3.74,MX,1675645142
240,mareeba,-17.0,145.4333,83.44,83,99,5.91,AU,1675645143
241,tilichiki,60.4667,166.1,-13.76,94,14,7.7,RU,1675645143
242,yilan,24.757,121.753,67.01,91,100,1.57,TW,1675645144
243,abalak,58.1286,68.5944,2.77,99,100,1.83,RU,1675645145
244,cidreira,-30.1811,-50.2056,73.4,81,100,8.79,BR,1675645146
245,marsa matruh,31.3525,27.2453,48.4,71,40,24.16,EG,1675644863
246,moerai,-22.4333,-151.3333,80.49,73,75,10.78,PF,1675645148
247,port augusta,-32.5,137.7667,84.97,23,6,3.67,AU,1675645148
248,emba,48.8264,58.1442,-3.44,98,14,4.34,KZ,1675645149
249,mar del plata,-38.0023,-57.5575,80.62,50,0,9.22,AR,1675645150
250,godfrey,38.9556,-90.1868,50.83,51,0,6.87,US,1675645151
251,talnakh,69.4865,88.3972,4.21,98,99,2.44,RU,1675644869
252,narsaq,60.9167,-46.05,7.59,71,98,13.49,GL,1675645152
253,kodiak,57.79,-152.4072,36.91,100,100,5.75,US,1675645153
254,tokur,53.1333,132.9,-13.45,97,98,3.36,RU,1675645154
255,biak,-0.9131,122.8766,82.18,63,95,5.82,ID,1675645154
256,yanam,16.7333,82.2167,63.88,94,14,2.04,IN,1675645155
257,sinnamary,5.3833,-52.95,75.96,87,88,12.26,GF,1675645156
258,robertson,36.5167,-86.8667,55.38,73,20,5.75,US,1675645157
259,sioux lookout,50.1001,-91.917,5.07,78,40,4.61,CA,1675645158
260,conceicao da barra,-18.5933,-39.7322,78.1,84,0,11.56,BR,1675645159
261,norrtalje,59.758,18.705,28.02,79,11,9.13,SE,1675645159
262,bethel,41.3712,-73.414,40.87,68,0,0.0,US,1675645160
263,nisia floresta,-6.0911,-35.2086,81.41,82,15,6.44,BR,1675645161
264,lompoc,34.6391,-120.4579,57.02,79,40,17.27,US,1675644873
265,quzhou,28.9594,118.8686,49.1,97,100,2.51,CN,1675645163
266,houma,29.5958,-90.7195,63.0,65,0,1.01,US,1675645164
267,norsup,-16.0667,167.3833,85.68,72,100,14.88,VU,1675645165
268,fairbanks,64.8378,-147.7164,7.09,78,0,8.05,US,1675645166
269,farrukhnagar,17.0778,78.2011,60.51,37,5,4.97,IN,1675645167
270,kalmunai,7.4167,81.8167,75.07,89,100,7.43,LK,1675645167
271,khatanga,71.9667,102.5,-34.31,100,48,6.58,RU,1675645168
272,baghmara,23.795,86.2085,57.76,44,0,3.91,IN,1675645168
273,umm kaddadah,13.6017,26.6876,64.15,19,38,9.42,SD,1675645169
274,aykhal,66.0,111.5,-28.23,99,100,2.71,RU,1675645169
275,santa maria,-29.6842,-53.8069,70.9,83,0,2.3,BR,1675645170
276,chiredzi,-21.05,31.6667,68.58,70,0,2.46,ZW,1675645170
277,bilma,18.6853,12.9164,63.18,10,16,13.09,NE,1675645171
278,zalesovo,53.9939,84.7431,-4.23,98,100,3.65,RU,1675645171
279,taoudenni,22.6783,-3.9836,60.46,24,100,10.0,ML,1675644947
280,bayevo,53.2833,80.7667,11.97,95,100,7.81,RU,1675645173
281,bihariganj,25.7333,86.9833,52.72,74,0,7.54,IN,1675645173
282,hasaki,35.7333,140.8333,46.29,70,3,6.8,JP,1675645174
283,alice springs,-23.7,133.8833,81.95,18,2,11.5,AU,1675644885
284,cayenne,4.9333,-52.3333,71.64,100,75,0.0,GF,1675645175
285,thompson,55.7435,-97.8558,6.96,85,100,4.61,CA,1675645175
286,cockburn town,21.4612,-71.1419,77.56,80,5,22.84,TC,1675645176
287,esterhazy,50.65,-102.0843,27.45,90,12,8.21,CA,1675645176
288,ambanja,-13.6833,48.45,74.57,93,100,2.64,MG,1675645177
289,sao filipe,14.8961,-24.4956,69.55,62,24,15.43,CV,1675645177
290,sikandra rao,27.7,78.4,55.96,46,0,2.59,IN,1675645178
291,gushikawa,26.3544,127.8686,65.43,95,75,6.91,JP,1675645178
292,rafraf,37.1904,10.1837,48.52,73,100,10.25,TN,1675645179
293,omboue,-1.5746,9.2618,77.88,85,100,4.88,GA,1675645179
294,songjianghe,42.1859,127.479,19.27,89,100,2.35,CN,1675645180
295,harper,4.375,-7.7169,79.83,84,88,8.63,LR,1675645181
296,ipora,-16.4419,-51.1178,70.77,91,72,0.96,BR,1675645181
297,lashio,22.9333,97.75,51.69,52,28,1.14,MM,1675645182
298,terrace,54.5163,-128.6035,39.11,81,75,18.41,CA,1675645116
299,requena,39.4883,-1.1004,34.52,71,0,2.68,ES,1675645182
300,methoni,36.8197,21.7049,40.86,57,14,5.64,GR,1675645183
301,karratha,-20.7377,116.8463,93.6,41,2,1.34,AU,1675645183
302,ixtapa,20.7,-105.2,74.23,85,0,3.0,MX,1675645184
303,asfi,32.2994,-9.2372,53.53,71,0,6.46,MA,1675645184
304,kaitangata,-46.2817,169.8464,65.66,61,52,16.11,NZ,1675645185
305,karakulino,56.012,53.7067,14.92,96,100,3.49,RU,1675645185
306,pavlovka,52.6897,47.1405,2.59,98,85,3.89,RU,1675645186
307,fortuna,40.5982,-124.1573,48.65,92,98,1.99,US,1675645070
308,olafsvik,64.8945,-23.7142,35.53,69,100,41.47,IS,1675645044
309,oistins,13.0667,-59.5333,77.09,78,40,25.32,BB,1675645187
310,pevek,69.7008,170.3133,-31.23,96,100,3.49,RU,1675644958
311,santo domingo,18.5001,-69.9886,74.88,94,72,1.99,DO,1675645070
312,raudeberg,61.9875,5.1352,42.96,74,100,24.9,NO,1675645188
313,cherskiy,68.75,161.3,-39.15,100,100,4.43,RU,1675645189
314,ercis,39.0287,43.3586,27.19,95,100,6.85,TR,1675645189
315,faya,18.3851,42.4509,55.92,62,98,2.93,SA,1675645190
316,flinders,-34.5833,150.8552,84.06,65,0,5.99,AU,1675645190
317,westport,41.1415,-73.3579,42.78,76,100,10.27,US,1675645191
318,kedougou,12.5579,-12.1743,79.38,27,0,0.78,SN,1675645191
319,taos,36.4072,-105.5731,52.2,20,0,10.36,US,1675645192
320,ucluelet,48.9329,-125.5528,47.08,85,100,8.01,CA,1675645192
321,dutlwe,-23.9833,23.9,72.72,58,18,7.85,BW,1675645193
322,tianpeng,30.9866,103.9393,50.63,73,100,1.41,CN,1675645194
323,north bend,43.4065,-124.2243,48.11,87,100,12.66,US,1675645194
324,taksimo,56.3444,114.8794,1.87,87,100,4.7,RU,1675645195
325,abu dhabi,24.4667,54.3667,66.22,90,0,2.3,AE,1675644937
326,brae,60.3964,-1.353,46.13,88,100,25.72,GB,1675645195
327,kargat,55.1956,80.2811,-5.3,100,94,4.47,RU,1675645196
328,sucre,-19.0333,-65.2627,49.24,88,27,4.07,BO,1675645196
329,nome,64.5011,-165.4064,17.67,73,100,8.05,US,1675645070
330,yetkul,54.8221,61.588,-4.68,100,100,5.61,RU,1675645197
331,port blair,11.6667,92.75,77.04,88,40,0.0,IN,1675645198
332,seymchan,62.8833,152.4333,-21.91,90,95,2.08,RU,1675645198
333,tiksi,71.6872,128.8694,-25.28,100,100,3.4,RU,1675645199
334,husavik,66.0449,-17.3389,43.95,67,100,32.99,IS,1675645199
335,lisakovsk,52.5369,62.4936,2.8,97,92,6.42,KZ,1675645200
336,pachino,36.7186,15.0907,42.44,52,1,10.67,IT,1675645200
337,independence,39.0911,-94.4155,51.1,47,100,2.91,US,1675645201
338,faanui,-16.4833,-151.75,81.91,73,8,14.79,PF,1675645204
339,gornopravdinsk,60.05,69.9,-2.83,100,100,1.59,RU,1675645210
340,gigmoto,13.7796,124.39,79.39,86,44,10.76,PH,1675645215
341,half moon bay,37.4636,-122.4286,53.11,85,75,17.27,US,1675645217
342,mithi,24.7318,69.7981,63.59,83,0,8.52,PK,1675645226
343,bathsheba,13.2167,-59.5167,77.61,78,40,25.32,BB,1675645230
344,leshukonskoye,64.8989,45.7622,-6.63,100,65,5.19,RU,1675645232
345,kidodi,-7.6036,37.0044,70.43,98,100,3.71,TZ,1675645233
346,inongo,-1.95,18.2667,74.32,83,100,5.79,CD,1675645234
347,neuquen,-38.9516,-68.0591,94.89,15,0,14.97,AR,1675645064
348,avera,33.194,-82.5271,51.31,88,0,7.29,US,1675645060
349,pochutla,15.7432,-96.4661,73.54,72,0,4.14,MX,1675645235
350,usinsk,65.9939,57.5281,-2.04,98,93,6.29,RU,1675645236
351,matay,28.419,30.7792,50.63,37,0,8.68,EG,1675645236
352,itupiranga,-5.1347,-49.3267,77.32,95,100,2.55,BR,1675645237
353,markova,48.6758,24.4138,18.77,96,100,5.59,UA,1675645238
354,indiana,40.0003,-86.2503,44.37,68,0,5.75,US,1675645238
355,linxia,35.6003,103.2064,26.74,43,100,1.05,CN,1675645239
356,kollo,13.3043,2.339,78.93,15,100,8.59,NE,1675645240
357,puerto de la cruz,28.414,-16.5487,59.77,79,3,4.0,ES,1675645241
358,salvador,13.8333,-88.9167,80.64,52,43,0.89,SV,1675644962
359,bambous virieux,-20.3428,57.7575,78.22,88,40,3.44,MU,1675645242
360,kousseri,12.0769,15.0306,75.34,16,59,9.04,CM,1675645243
361,hofn,64.2539,-15.2082,46.2,95,100,36.93,IS,1675645244
362,saldanha,-33.0117,17.9442,62.65,94,0,9.53,ZA,1675645244
363,rantepao,-2.9701,119.8978,76.98,65,98,1.16,ID,1675645245
364,araouane,18.9048,-3.5265,63.19,19,5,9.78,ML,1675645245
365,wukari,7.85,9.7833,77.11,16,100,3.8,NG,1675645246
366,eyl,7.9803,49.8164,72.77,81,95,12.97,SO,1675645247
367,ust-kulom,61.6864,53.6902,-12.66,100,100,2.42,RU,1675645248
368,lata,40.1629,-8.3327,40.08,76,0,4.29,PT,1675645248
369,ulaangom,49.9811,92.0667,-4.97,99,100,1.07,MN,1675645249
370,moron,-34.6534,-58.6198,82.29,56,0,6.24,AR,1675645249
371,bria,6.5423,21.9863,69.73,20,6,3.15,CF,1675645250
372,chipinge,-20.1883,32.6236,61.52,74,0,1.81,ZW,1675645250
373,marawi,7.9986,124.2928,76.46,66,45,2.3,PH,1675645251
374,rio grande,-32.035,-52.0986,71.71,79,14,7.63,BR,1675645251
375,komsomolskiy,40.4272,71.7189,38.12,93,100,2.3,UZ,1675645252
376,mitchell,43.7094,-98.0298,28.38,88,0,9.22,US,1675645138
377,chernyshevskiy,63.0128,112.4714,-54.18,100,78,0.81,RU,1675645253
378,gizo,-8.103,156.8419,78.73,89,100,14.72,SB,1675645254
379,ulladulla,-35.35,150.4667,77.31,55,0,9.15,AU,1675645255
380,mantua,45.1667,10.7833,40.35,82,12,3.0,IT,1675645256
381,port-gentil,-0.7193,8.7815,80.44,79,84,13.4,GA,1675645256
382,yeppoon,-23.1333,150.7333,83.98,76,60,16.78,AU,1675645257
383,acapulco,16.8634,-99.8901,78.35,69,0,7.09,MX,1675645072
384,weihai,37.5017,122.1136,38.46,78,1,1.66,CN,1675645223
385,zhigansk,66.7697,123.3711,-41.94,95,100,0.76,RU,1675645258
386,emirdag,39.0197,31.15,28.06,93,100,16.49,TR,1675645258
387,nemuro,43.3236,145.575,26.98,74,100,3.83,JP,1675645259
388,watsa,3.0372,29.5355,65.82,44,99,1.66,CD,1675645259
389,nioro,13.35,-15.75,73.51,19,100,6.96,GM,1675645260
390,warri,5.5167,5.75,79.7,85,100,5.48,NG,1675645220
391,seoul,37.5683,126.9778,35.04,97,20,1.14,KR,1675645200
392,hami,42.8,93.45,28.45,42,84,3.69,CN,1675645261
393,dekar,-21.5333,21.9333,68.92,84,100,9.95,BW,1675645262
394,la asuncion,11.0333,-63.8628,76.33,82,100,16.46,VE,1675645264
395,cabo san lucas,22.8909,-109.9124,74.61,57,18,9.31,MX,1675645201
396,oropesa,-13.5928,-71.7719,58.86,54,75,6.91,PE,1675645268
397,kalaleh,37.3807,55.4916,42.4,49,0,6.91,IR,1675645270
398,kloulklubed,7.0419,134.2556,81.1,77,100,21.16,PW,1675645274
399,arvika,59.6553,12.5852,18.21,93,64,2.55,SE,1675644982
400,languyan,5.2618,120.0807,81.79,72,15,2.24,PH,1675645279
401,dano,11.15,-3.0667,79.63,15,3,5.03,BF,1675645281
402,siderno,38.2779,16.302,37.33,60,0,8.61,IT,1675645283
403,linkoping,58.4109,15.6216,30.18,91,75,11.5,SE,1675645285
404,chardara,41.2547,67.9692,34.41,75,100,6.8,KZ,1675645287
405,lensk,60.7253,114.9278,-45.27,100,65,0.96,RU,1675645289
406,rehnan,32.6846,51.6013,26.11,52,100,5.06,IR,1675645290
407,nesna,66.1967,13.0213,39.67,97,100,12.59,NO,1675645291
408,lar,26.2039,83.9717,50.54,75,0,5.3,IN,1675645291
409,atambua,-9.1061,124.8925,79.27,72,81,4.54,ID,1675645292
410,gat,31.61,34.7642,56.39,10,6,15.46,IL,1675645081
411,rondonopolis,-16.4708,-54.6356,73.38,92,100,2.44,BR,1675645293
412,burnie,-41.0667,145.9167,69.04,53,31,11.07,AU,1675645294
413,ancud,-41.8697,-73.8203,57.96,77,69,4.72,CL,1675645294
414,sisimiut,66.9395,-53.6735,-1.1,93,100,5.66,GL,1675645295
415,sijunjung,-0.6876,100.9537,71.96,84,100,1.5,ID,1675645295
416,juneau,58.3019,-134.4197,35.22,97,100,23.02,US,1675645296
417,tarasovskiy,48.7292,40.3636,22.68,93,100,11.03,RU,1675645296
418,aksha,50.2814,113.2867,-3.39,94,38,4.45,RU,1675645297
419,zyryanka,65.75,150.85,-26.54,98,100,1.45,RU,1675645298
420,broome,42.2506,-75.833,41.77,64,100,10.36,US,1675645299
421,barra patuca,15.8,-84.2833,75.47,77,17,6.73,HN,1675645299
422,jever,53.5833,7.9,41.02,100,60,3.44,DE,1675645300
423,khasan,42.4308,130.6434,25.16,69,9,9.26,RU,1675645300
424,cururupu,-1.8283,-44.8683,74.64,96,99,3.15,BR,1675645301
425,mananara,-16.1667,49.7667,73.63,94,100,4.36,MG,1675645301
426,iguape,-24.7081,-47.5553,76.95,82,21,5.23,BR,1675645302
427,abha,18.2164,42.5053,55.65,26,0,5.75,SA,1675645302
428,lagoa,39.05,-27.9833,59.02,84,100,9.93,PT,1675645303
429,labuhan,-6.8844,112.2051,79.57,81,100,3.53,ID,1675645303
430,santa quiteria,-4.3319,-40.1567,73.74,89,52,3.6,BR,1675645305
431,buraydah,26.326,43.975,55.85,41,32,7.74,SA,1675645306
432,minab,27.1467,57.0801,63.61,79,0,4.27,IR,1675645307
433,mayo,38.8876,-76.5119,50.88,72,0,11.5,US,1675645307
434,hun,29.1268,15.9477,48.96,80,60,7.81,LY,1675645308
435,tailai,46.3833,123.4,5.5,83,22,4.09,CN,1675645308
436,lipin bor,60.2622,37.9763,-1.61,100,100,4.65,RU,1675645309
437,charters towers,-20.1,146.2667,86.25,62,75,13.35,AU,1675645310
438,preobrazheniye,42.9019,133.9064,26.37,55,6,3.18,RU,1675645310
439,grand gaube,-20.0064,57.6608,78.39,79,100,1.99,MU,1675645311
440,ingolstadt,48.7667,11.4333,30.67,76,20,2.3,DE,1675645311
441,tigre,-34.426,-58.5796,82.54,57,0,10.36,AR,1675645312
442,taitung,22.7583,121.1444,73.67,83,20,3.44,TW,1675645313
443,atasu,48.6814,71.6433,18.28,97,96,5.39,KZ,1675645313
444,batagay-alyta,67.8006,130.4114,-26.54,99,100,0.72,RU,1675645314
445,salalah,17.0151,54.0924,69.35,64,100,2.89,OM,1675645314
446,morondava,-20.2833,44.2833,76.03,87,100,6.91,MG,1675645315
447,jurm,36.8648,70.8342,33.46,95,100,1.1,AF,1675645316
448,san patricio,28.017,-97.5169,69.89,85,0,9.55,US,1675645316
449,kahului,20.8947,-156.47,80.62,73,40,21.85,US,1675645147
450,kavaratti,10.5669,72.642,79.88,75,13,6.44,IN,1675645317
451,mezen,65.8522,44.24,-2.97,98,22,6.33,RU,1675645317
452,dandong,40.1292,124.3947,30.97,70,94,4.12,CN,1675645318
453,bay roberts,47.5999,-53.2648,25.34,81,78,5.99,CA,1675645091
454,makarska,43.2969,17.0178,30.4,55,77,12.41,HR,1675645319
455,sobolevo,54.4299,31.8996,17.78,97,100,5.82,RU,1675645319
456,waingapu,-9.6567,120.2641,79.52,85,100,14.88,ID,1675645320
457,sambava,-14.2667,50.1667,74.35,92,100,5.55,MG,1675645321
458,sola,-13.8833,167.55,81.05,79,100,14.2,VU,1675645321
459,fayaoue,-20.65,166.5333,82.8,80,100,9.6,NC,1675645323
460,tadine,-21.55,167.8833,84.07,72,45,3.91,NC,1675645326
461,alofi,-19.0595,-169.9187,73.29,100,100,3.44,NU,1675645329
462,evensk,61.95,159.2333,-12.82,78,17,8.08,RU,1675645330
463,daru,-9.0763,143.2092,77.18,92,100,4.92,PG,1675645333
464,aleksandrovskiy zavod,50.9237,117.9374,-9.0,98,73,3.91,RU,1675645334
465,anadyr,64.75,177.4833,-23.01,74,75,13.42,RU,1675645339
466,bansko,41.8383,23.4885,16.99,92,79,5.03,BG,1675645341
467,powell river,49.8496,-124.5361,49.64,66,20,10.36,CA,1675645350
468,sarahan,31.5167,77.8,31.32,46,5,9.55,IN,1675645352
469,shiraz,29.6036,52.5388,35.04,87,0,0.0,IR,1675645211
470,rawson,-43.3002,-65.1023,63.27,66,100,21.16,AR,1675645354
471,braganca,-1.0536,-46.7656,73.6,98,100,1.88,BR,1675645355
472,mount gambier,-37.8333,140.7667,67.64,53,19,6.67,AU,1675645356
473,winslow,35.0242,-110.6974,55.58,21,0,18.41,US,1675645357
474,muros,42.7762,-9.0603,44.83,78,1,7.81,ES,1675645357
475,kaeo,-35.1,173.7833,67.14,93,100,5.39,NZ,1675645358
476,parelhas,-6.6878,-36.6575,76.86,75,43,9.37,BR,1675645358
477,tombouctou,20.0,-3.0,62.11,18,7,9.66,ML,1675645359
478,nalut,30.3333,10.85,46.62,67,100,6.67,LY,1675645359
479,almeria,37.1667,-2.3333,42.96,74,0,1.97,ES,1675645360
480,shimoda,34.6667,138.95,50.36,42,93,8.81,JP,1675645360
481,tarakan,3.3,117.6333,78.3,94,20,2.3,ID,1675645197
482,padang,-0.9492,100.3543,73.45,77,100,3.62,ID,1675645361
483,waipawa,-41.4122,175.5153,72.37,55,0,15.86,NZ,1675645362
484,havoysund,70.9963,24.6622,39.43,69,11,23.44,NO,1675645362
485,adrar,20.5022,-10.0711,57.63,29,100,10.0,MR,1675645363
486,bobo dioulasso,11.1771,-4.2979,77.23,17,0,5.14,BF,1675645363
487,darlowo,54.421,16.4107,31.98,76,100,9.1,PL,1675645364
488,jacqueville,5.2052,-4.4146,80.62,86,84,10.74,CI,1675645364
489,jucas,-6.5253,-39.5275,78.4,61,100,4.07,BR,1675645365
490,port macquarie,-31.4333,152.9167,82.89,57,34,9.26,AU,1675645301
491,san juan,-31.5375,-68.5364,87.98,27,0,9.8,AR,1675645232
492,okha,53.5739,142.9478,-0.11,92,100,12.12,RU,1675645366
493,vao,-22.6667,167.4833,78.98,85,42,15.1,NC,1675645366
494,mnogovershinnyy,53.9353,139.9242,-3.89,88,98,4.85,RU,1675645367
495,yar-sale,66.8333,70.8333,-18.13,100,87,1.45,RU,1675645368
496,codrington,-38.2667,141.9667,65.07,60,88,8.03,AU,1675645369
497,pontes e lacerda,-15.2261,-59.3353,72.59,98,100,3.18,BR,1675645369
498,altay,47.8667,88.1167,17.8,69,100,5.75,CN,1675645370
499,gwanda,-20.9333,29.0,65.79,70,2,4.76,ZW,1675645370
500,bystryy istok,52.371,84.3873,5.63,99,100,3.96,RU,1675645371
501,inhambane,-23.865,35.3833,73.18,87,58,5.66,MZ,1675645371
502,george,-33.963,22.4617,69.35,94,75,3.44,ZA,1675645372
503,alpena,45.0617,-83.4327,30.18,87,100,9.22,US,1675645372
504,paamiut,61.994,-49.6678,13.3,78,100,20.27,GL,1675645373
505,regina,50.4501,-104.6178,28.04,86,75,16.11,CA,1675645373
506,vilhena,-12.7406,-60.1458,68.68,96,96,2.1,BR,1675645374
507,gamba,-2.65,10.0,78.12,82,100,4.18,GA,1675645375
508,linhares,-19.3911,-40.0722,75.74,87,1,4.92,BR,1675645375
509,dongsheng,39.8161,109.9776,23.25,38,23,0.78,CN,1675645231
510,ketchikan,55.3422,-131.6461,37.38,98,100,8.5,US,1675645316
511,ewa beach,21.3156,-158.0072,82.35,64,20,14.97,US,1675645376
512,kasulu,-4.5767,30.1025,61.12,93,100,3.87,TZ,1675645377
513,altamira,-3.2033,-52.2064,72.41,96,9,2.64,BR,1675645377
514,homer,59.6425,-151.5483,39.09,68,100,17.27,US,1675645378
515,jalingo,8.8833,11.3667,79.65,18,100,5.12,NG,1675645379
516,chuhar kana,31.75,73.8,51.08,80,35,7.02,PK,1675645379
517,lavrentiya,65.5833,-171.0,-3.12,88,100,9.26,RU,1675645380
518,sorland,67.667,12.6934,42.66,97,100,29.71,NO,1675645380
519,labytnangi,66.6572,66.4183,-8.9,95,58,3.09,RU,1675645381
520,te anau,-45.4167,167.7167,61.0,77,99,6.67,NZ,1675645381
521,makubetsu,45.3714,141.8211,22.71,68,75,11.5,JP,1675645383
522,chapada dos guimaraes,-15.4606,-55.7497,71.26,84,50,2.91,BR,1675645385
523,bondo,3.8146,23.6866,70.5,34,100,1.21,CD,1675645388
524,indramayu,-6.3264,108.32,79.9,74,100,8.23,ID,1675645390
525,rundu,-17.9333,19.7667,65.73,94,100,4.85,NA,1675645309
526,ziri,46.0422,14.1072,31.48,88,85,2.17,SI,1675645394
527,lazaro cardenas,17.9583,-102.2,76.46,73,0,5.84,MX,1675645105
528,morros,-9.4467,-46.3003,76.6,60,21,4.0,BR,1675645397
529,matara,5.9485,80.5353,75.07,92,100,4.5,LK,1675645400
530,saint-malo,48.5,-1.8333,39.15,89,0,6.64,FR,1675645402
531,hay river,60.8156,-115.7999,3.18,78,100,2.3,CA,1675645234
532,mengcheng,33.2579,116.5655,45.68,86,100,4.05,CN,1675645404
533,maceio,-9.6658,-35.7353,76.44,94,20,4.61,BR,1675645291
534,semey,50.4111,80.2275,22.73,95,100,6.93,KZ,1675645380
535,montecristi,-1.05,-80.6667,78.62,78,75,5.75,EC,1675645408
536,marzuq,14.4,46.4667,62.31,68,11,3.94,YE,1675645409
537,mount pleasant,32.7941,-79.8626,56.07,98,100,1.01,US,1675645258
538,barguzin,53.6167,109.6167,3.97,96,94,3.83,RU,1675645410
539,najran,17.4924,44.1277,57.85,39,60,1.32,SA,1675645144
540,witu,-2.3889,40.4382,77.16,91,5,5.86,KE,1675645411
541,puerto madero,14.7208,-92.4215,79.0,94,40,0.0,MX,1675645411
542,huinan,42.6225,126.2614,10.76,92,46,1.48,CN,1675645412
543,freeport,40.6576,-73.5832,44.01,84,0,4.61,US,1675645385
544,poronaysk,49.2167,143.1167,1.44,82,15,2.68,RU,1675645412
545,erzin,36.9559,36.2,42.3,90,100,9.57,TR,1675645413
546,nhulunbuy,-12.2333,136.7667,88.41,62,40,8.05,AU,1675645413
547,lagos,6.5833,3.75,79.59,88,100,6.73,NG,1675645414
548,sakaraha,-22.9,44.5333,69.42,83,100,9.48,MG,1675645415
549,honningsvag,70.9821,25.9704,38.95,65,100,19.57,NO,1675645415
550,tomatlan,19.9333,-105.25,73.92,64,0,3.38,MX,1675645416
551,qandala,11.472,49.8728,71.51,78,29,3.49,SO,1675645416
552,gomel,52.4345,30.9754,26.58,86,100,8.95,BY,1675645417
553,kargasok,59.0556,80.8572,-4.79,100,100,2.89,RU,1675645418
554,gimli,50.6336,-96.9907,14.02,79,51,14.97,CA,1675645137
555,itaituba,-4.2761,-55.9836,73.74,98,100,1.32,BR,1675645419
556,zabol,32.25,67.25,33.85,92,0,4.41,AF,1675645420
557,znamenskoye,57.1281,73.8282,-8.84,100,100,2.06,RU,1675645420
558,sol-iletsk,51.1631,54.9918,-2.63,100,30,3.51,RU,1675645421
559,kulhudhuffushi,6.6221,73.07,79.83,75,100,2.62,MV,1675645256
560,north valley,35.1734,-106.6234,61.47,21,20,5.75,US,1675645421
561,tazovskiy,67.4667,78.7,-9.47,100,95,6.64,RU,1675645422
562,moussoro,13.6408,16.4901,74.23,15,100,10.04,TD,1675645422
563,mujiayingzi,42.1167,118.7833,20.7,50,3,1.86,CN,1675645403
564,kota belud,6.351,116.4305,81.61,68,10,1.88,MY,1675645423
565,caravelas,-17.7125,-39.2481,78.35,83,1,10.56,BR,1675645424
566,abu kamal,34.4506,40.9171,51.19,50,24,11.16,SY,1675645425
567,moba,33.2288,105.0179,36.16,74,95,1.99,CN,1675645425
568,maryville,35.7565,-83.9705,52.05,71,0,10.36,US,1675645296
569,mporokoso,-9.3727,30.125,58.8,95,96,2.06,ZM,1675645375
570,port pirie,-33.1833,138.0167,82.85,28,1,2.57,AU,1675645426
571,anastacio,-20.4836,-55.8069,74.93,78,3,2.66,BR,1675645427
572,ngunguru,-35.6167,174.5,68.68,89,93,9.1,NZ,1675645427
573,cheremshan,54.6667,51.5,12.67,97,100,2.24,RU,1675645428
574,arkhara,49.4212,130.0842,-10.16,99,99,3.47,RU,1675645428
575,gogrial,8.5332,28.1004,75.04,17,6,5.91,SS,1675645429
576,campestre,-21.7111,-46.2464,65.52,94,100,1.92,BR,1675645429
577,luba,3.4568,8.5547,78.69,84,68,10.11,GQ,1675645430
